[{"id":1,"name":"Lagos","address":"4 Ramsey Plaza","lng":3.3792057,"lat":6.5243793},
{"id":2,"name":"Tobatí","address":"1980 Red Cloud Pass","lng":-57.0844094,"lat":-25.2630014},
{"id":3,"name":"Mailsi","address":"66046 Sutherland Avenue","lng":72.1747127,"lat":29.7905037},
{"id":4,"name":"Mulhouse","address":"13848 Fremont Point","lng":7.3507066,"lat":47.7489727},
{"id":5,"name":"Wawer","address":"6273 Tennyson Pass","lng":21.14523,"lat":52.199771},
{"id":6,"name":"Nowshera","address":"071 Lillian Crossing","lng":71.9795856,"lat":34.0112004},
{"id":7,"name":"Sasovo","address":"60310 Butternut Alley","lng":41.9194126,"lat":54.356424},
{"id":8,"name":"Envira","address":"48462 Redwing Road","lng":-69.8597406,"lat":-7.4782808},
{"id":9,"name":"Tacoma","address":"77 Texas Parkway","lng":-122.4773432,"lat":47.2457073},
{"id":10,"name":"Ngorongoro","address":"005 Stoughton Parkway","lng":35.4504347,"lat":-2.9753131},
{"id":11,"name":"Khalkhāl","address":"37 Tennessee Street","lng":48.5330218,"lat":37.6205429},
{"id":12,"name":"Mbongawani","address":"1 Crowley Alley","lng":121.6468481,"lat":-8.8479584},
{"id":13,"name":"Tyczyn","address":"12 Meadow Valley Plaza","lng":22.0339385,"lat":49.9638636},
{"id":14,"name":"Devin","address":"8504 Tennessee Parkway","lng":24.3697976,"lat":41.7047388},
{"id":15,"name":"São Domingos","address":"1 Blue Bill Park Way","lng":-8.1963545,"lat":41.2918839},
{"id":16,"name":"Baokou","address":"5 Delaware Way","lng":115.203506,"lat":23.213961},
{"id":17,"name":"Tajimi","address":"5707 Larry Drive","lng":137.1605839,"lat":35.2897617},
{"id":18,"name":"Tursunzoda","address":"2164 Packers Road","lng":68.2146857,"lat":38.5301118},
{"id":19,"name":"Amper","address":"360 Kim Terrace","lng":9.7023684,"lat":9.3548105},
{"id":20,"name":"Pereira","address":"57885 Kropf Junction","lng":-75.690601,"lat":4.8087174},
{"id":21,"name":"Nagbalaye","address":"483 Leroy Plaza","lng":122.874409,"lat":9.2524087},
{"id":22,"name":"Brusyliv","address":"30 Kensington Park","lng":29.5094362,"lat":50.2875742},
{"id":23,"name":"Ukata","address":"0 Memorial Crossing","lng":5.8274722,"lat":10.8325561},
{"id":24,"name":"Lacdayan","address":"7264 Loeprich Road","lng":121.0665877,"lat":14.3537237},
{"id":25,"name":"Taibai","address":"0 Sachs Center","lng":107.319116,"lat":34.058401},
{"id":26,"name":"Qimeng","address":"1 Moulton Point","lng":2.1633946,"lat":41.393981},
{"id":27,"name":"Tambangan","address":"99 Heffernan Crossing","lng":104.4683,"lat":-3.544289},
{"id":28,"name":"Krajan","address":"363 Emmet Junction","lng":111.6556388,"lat":-7.5450262},
{"id":29,"name":"Al Ḩayfah","address":"75955 Buell Avenue","lng":44.207608,"lat":15.6915862},
{"id":30,"name":"Miami","address":"581 5th Terrace","lng":-80.2454223,"lat":25.728011},
{"id":31,"name":"Mayenne","address":"49 Blackbird Center","lng":-0.607106,"lat":47.854132},
{"id":32,"name":"Lima Pampa","address":"95 Prairieview Place","lng":-76.9970692,"lat":-11.9417972},
{"id":33,"name":"São João do Campo","address":"2012 Del Sol Avenue","lng":-8.5110798,"lat":40.2365225},
{"id":34,"name":"Strelka","address":"1362 Londonderry Plaza","lng":37.2884784,"lat":45.207675},
{"id":35,"name":"Libu","address":"31 Annamark Circle","lng":107.88645,"lat":25.410654},
{"id":36,"name":"Tsákoi","address":"19666 John Wall Park","lng":22.0383248,"lat":40.9556823},
{"id":37,"name":"Kihangara","address":"3601 Stone Corner Road","lng":38.328209,"lat":-9.922886},
{"id":38,"name":"Xiluo","address":"6 Ilene Way","lng":104.887114,"lat":24.031853},
{"id":39,"name":"Staryy Togul","address":"242 Fulton Alley","lng":"85.9006","lat":"53.4291"},
{"id":40,"name":"George Town","address":"718 Grover Alley","lng":-81.3674389,"lat":19.2869323},
{"id":41,"name":"Wedoro","address":"2 Steensland Terrace","lng":112.7494759,"lat":-7.348395},
{"id":42,"name":"Datun","address":"27 Monument Parkway","lng":119.9745295,"lat":40.621506},
{"id":43,"name":"Xiliguantun","address":"0316 Forest Dale Drive","lng":"115.94139","lat":"37.07833"},
{"id":44,"name":"Craigavon","address":"3 Hagan Hill","lng":-6.4175653,"lat":54.4429264},
{"id":45,"name":"Haoxin","address":"36466 Sachtjen Avenue","lng":113.2558405,"lat":23.1451405},
{"id":46,"name":"Köln","address":"48787 Manitowish Crossing","lng":6.9538234,"lat":50.9648271},
{"id":47,"name":"San Luis","address":"851 Toban Circle","lng":-75.8475853,"lat":20.1871897},
{"id":48,"name":"Dahewan","address":"19706 Fulton Avenue","lng":120.960515,"lat":23.69781},
{"id":49,"name":"Quinta","address":"1 John Wall Lane","lng":-118.5748667,"lat":39.5481333},
{"id":50,"name":"Salamwates","address":"05356 Thierer Center","lng":111.5766407,"lat":-8.2310152},
{"id":51,"name":"Orange","address":"005 Coleman Drive","lng":4.810107,"lat":44.1372925},
{"id":52,"name":"Lugo","address":"697 Ryan Hill","lng":123.9251851,"lat":10.8117907},
{"id":53,"name":"Fort-de-France","address":"73413 Pepper Wood Avenue","lng":-61.0512822,"lat":14.641514},
{"id":54,"name":"Rajsko","address":"58 Declaration Circle","lng":18.3095531,"lat":51.7555981},
{"id":55,"name":"An Naşşārīyah","address":"9 Merchant Junction","lng":"35.38711","lat":"32.23647"},
{"id":56,"name":"Yaguajay","address":"5 Calypso Drive","lng":-79.2366566,"lat":22.3287394},
{"id":57,"name":"Sawahan","address":"89637 Canary Plaza","lng":112.7211714,"lat":-7.2630131},
{"id":58,"name":"Trondheim","address":"65 Iowa Alley","lng":10.4024274,"lat":63.4400274},
{"id":59,"name":"Nueva Cajamarca","address":"464 Fulton Court","lng":-77.303723,"lat":-5.946466},
{"id":60,"name":"Paris La Défense","address":"9 Coleman Court","lng":2.2408938,"lat":48.891587},
{"id":61,"name":"Vila Verde","address":"7441 Harbort Circle","lng":-8.4353332,"lat":41.6427177},
{"id":62,"name":"Zelenograd","address":"900 Randy Way","lng":37.5186129,"lat":55.706586},
{"id":63,"name":"Nicoya","address":"48228 Morning Crossing","lng":-85.454983,"lat":10.142762},
{"id":64,"name":"San Diego","address":"13121 Mayer Parkway","lng":-117.1046198,"lat":32.7495898},
{"id":65,"name":"Siwalan","address":"555 Twin Pines Hill","lng":112.4351068,"lat":-6.9359242},
{"id":66,"name":"Cafe","address":"815 Starling Point","lng":121.0460866,"lat":14.554384},
{"id":67,"name":"Loei","address":"54 Prairie Rose Trail","lng":101.7523854,"lat":17.4605379},
{"id":68,"name":"Xinglongjie","address":"3 Superior Trail","lng":108.892527,"lat":30.077787},
{"id":69,"name":"Canalete","address":"9 Stoughton Avenue","lng":-76.240381,"lat":8.788161},
{"id":70,"name":"Qiuchuan","address":"58266 Armistice Place","lng":118.124765,"lat":30.829314},
{"id":71,"name":"Demak","address":"25435 Mandrake Point","lng":110.6377502,"lat":-6.8921607},
{"id":72,"name":"Moxi","address":"0 Eagan Park","lng":102.125808,"lat":29.64227},
{"id":73,"name":"Xiamao","address":"25943 Westerfield Park","lng":117.669428,"lat":26.571674},
{"id":74,"name":"Twante","address":"2 Emmet Park","lng":95.9383291,"lat":16.7120919},
{"id":75,"name":"Monastirákion","address":"65 Manitowish Circle","lng":22.7494193,"lat":37.705473},
{"id":76,"name":"Jiang’an","address":"7829 Novick Plaza","lng":114.309091,"lat":30.600064},
{"id":77,"name":"Santa Luċija","address":"557 Bunker Hill Court","lng":"14.5075","lat":"35.86278"},
{"id":78,"name":"Torslanda","address":"651 Hoffman Trail","lng":11.814933,"lat":57.7550378},
{"id":79,"name":"Vozuća","address":"256 Lyons Center","lng":18.3655679,"lat":44.3783113},
{"id":80,"name":"Yatunpu","address":"6250 Miller Parkway","lng":112.044491,"lat":22.915094},
{"id":81,"name":"Xihe","address":"6515 Anhalt Crossing","lng":105.298756,"lat":34.014215},
{"id":82,"name":"Itzig","address":"408 Jay Parkway","lng":6.1781675,"lat":49.5872019},
{"id":83,"name":"Hongqi","address":"87 Debra Drive","lng":113.875245,"lat":35.30385},
{"id":84,"name":"Sernancelhe","address":"5019 Spohn Road","lng":-7.4900188,"lat":40.8998417},
{"id":85,"name":"Bromma","address":"47416 Fuller Plaza","lng":17.9346454,"lat":59.3347189},
{"id":86,"name":"Sedatiagung","address":"47480 Glacier Hill Center","lng":112.7554346,"lat":-7.3808411},
{"id":87,"name":"Svay Rieng","address":"4 Nancy Point","lng":105.8290298,"lat":11.142722},
{"id":88,"name":"Zürich","address":"46722 Autumn Leaf Pass","lng":8.517289,"lat":47.3807562},
{"id":89,"name":"Mashan","address":"19732 Continental Place","lng":130.478187,"lat":45.212088},
{"id":90,"name":"Kayes","address":"9127 Northport Road","lng":11.69283,"lat":-4.423943},
{"id":91,"name":"Mloko","address":"7 Hallows Court","lng":110.1726465,"lat":-7.3608928},
{"id":92,"name":"Germiston","address":"5 Calypso Circle","lng":28.205089,"lat":-26.2922169},
{"id":93,"name":"Mauraro","address":"353 Melody Drive","lng":123.5983638,"lat":13.1487371},
{"id":94,"name":"Karlskoga","address":"0647 Hoepker Point","lng":14.5216278,"lat":59.3216049},
{"id":95,"name":"Cambebba","address":"113 Maryland Court","lng":-38.4809114,"lat":-3.8017999},
{"id":96,"name":"Janiuay","address":"4957 Spohn Center","lng":122.5100535,"lat":10.9455193},
{"id":97,"name":"Sukošan","address":"80 Lake View Junction","lng":15.3150024,"lat":44.0470411},
{"id":98,"name":"Paninggaran","address":"633 Maryland Parkway","lng":109.5925139,"lat":-7.1549929},
{"id":99,"name":"Oued Laou","address":"28 Lakewood Pass","lng":-5.0937101,"lat":35.4449242},
{"id":100,"name":"Jhingergācha","address":"262 Merchant Lane","lng":"89.09061","lat":"23.11134"},
{"id":101,"name":"Hanyū","address":"4413 Del Mar Avenue","lng":139.5303855,"lat":36.1763474},
{"id":102,"name":"Daishan","address":"890 Towne Pass","lng":122.226237,"lat":30.264139},
{"id":103,"name":"Himeji","address":"1255 Oak Trail","lng":134.3869188,"lat":35.4297161},
{"id":104,"name":"Peddie","address":"597 Ramsey Street","lng":26.5255946,"lat":-33.3106292},
{"id":105,"name":"Purwodadi","address":"2537 Vahlen Center","lng":110.9134113,"lat":-7.0872117},
{"id":106,"name":"Amouguer","address":"2 Carey Center","lng":-5.1174039,"lat":31.9963592},
{"id":107,"name":"Chernyanka","address":"81098 Vermont Junction","lng":37.8024687,"lat":50.9422707},
{"id":108,"name":"Chaihu","address":"57353 Bultman Pass","lng":117.890354,"lat":31.624522},
{"id":109,"name":"Al Bahlūlīyah","address":"22448 Arapahoe Center","lng":35.9546934,"lat":35.6353092},
{"id":110,"name":"Jarash","address":"09372 Johnson Pass","lng":35.8960765,"lat":32.2746515},
{"id":111,"name":"Ji’an","address":"46614 Grim Lane","lng":114.964696,"lat":27.087637},
{"id":112,"name":"Tobruk","address":"177 Onsgard Place","lng":23.941751,"lat":32.0681759},
{"id":113,"name":"Thị Trấn Thanh Lưu","address":"1092 Onsgard Terrace","lng":109.1068822,"lat":13.3807374},
{"id":114,"name":"San Miguel del Padrón","address":"1 Acker Street","lng":-82.3072013,"lat":23.0818155},
{"id":115,"name":"San Pedro","address":"14650 Duke Center","lng":-99.1075731,"lat":19.2586779},
{"id":116,"name":"Bacolod","address":"258 Ilene Junction","lng":121.0299296,"lat":14.4400324},
{"id":117,"name":"Lityn","address":"57 Meadow Vale Plaza","lng":28.0823146,"lat":49.3230985},
{"id":118,"name":"Bouca","address":"84 Northport Alley","lng":18.2763069,"lat":6.5060695},
{"id":119,"name":"Tangier","address":"07 Corben Parkway","lng":-5.8339543,"lat":35.7594651},
{"id":120,"name":"Kitahama","address":"17033 Northland Court","lng":141.0226267,"lat":38.3204422},
{"id":121,"name":"Lijiaping","address":"853 Orin Terrace","lng":100.22775,"lat":26.855047},
{"id":122,"name":"Charikar","address":"4380 Holy Cross Point","lng":69.1625896,"lat":35.0107648},
{"id":123,"name":"Macheke","address":"6002 Grasskamp Court","lng":31.8477213,"lat":-18.1450471},
{"id":124,"name":"Cikubang","address":"749 East Junction","lng":108.0272646,"lat":-7.4565208},
{"id":125,"name":"Gaojian","address":"24 Merchant Junction","lng":106.452907,"lat":27.013081},
{"id":126,"name":"Wichit","address":"67 Walton Pass","lng":98.3512841,"lat":7.9047781},
{"id":127,"name":"Emiliano Zapata","address":"29108 Brentwood Avenue","lng":-91.7660525,"lat":17.7409147},
{"id":128,"name":"Zhukovskiy","address":"195 Weeping Birch Crossing","lng":38.136671,"lat":55.580853},
{"id":129,"name":"San Diego","address":"06 Butternut Road","lng":-117.0697958,"lat":32.5746598},
{"id":130,"name":"Stamford","address":"46062 Arrowood Point","lng":-73.54,"lat":41.05},
{"id":131,"name":"White City","address":"3 Lien Drive","lng":-104.3624353,"lat":50.444953},
{"id":132,"name":"Hrušovany u Brna","address":"40349 North Crossing","lng":16.5942897,"lat":49.0386312},
{"id":133,"name":"Staryy Cherek","address":"28 Victoria Pass","lng":"43.84694","lat":"43.47139"},
{"id":134,"name":"Gradil","address":"986 Glendale Lane","lng":-9.2801649,"lat":38.9809754},
{"id":135,"name":"Santa Rosa","address":"11 Comanche Point","lng":-54.4801558,"lat":-27.8706817},
{"id":136,"name":"Zgornje Gorje","address":"777 Columbus Circle","lng":14.0683139,"lat":46.3789875},
{"id":137,"name":"Ban Na San","address":"8 Moose Pass","lng":99.4117197,"lat":8.8498948},
{"id":138,"name":"Natu","address":"069 Randy Point","lng":119.3984531,"lat":-9.3809238},
{"id":139,"name":"Laozhuang","address":"6 Annamark Terrace","lng":117.323725,"lat":34.810487},
{"id":140,"name":"Zmiyëvka","address":"01508 Merry Parkway","lng":36.3693158,"lat":52.6656693},
{"id":141,"name":"Lào Cai","address":"2584 Mitchell Avenue","lng":104.1487055,"lat":22.3380865},
{"id":142,"name":"Benjamín Aceval","address":"484 Lunder Place","lng":-57.5476145,"lat":-24.9670799},
{"id":143,"name":"Priozërsk","address":"082 Mosinee Hill","lng":30.1341099,"lat":61.0390194},
{"id":144,"name":"Lefortovo","address":"703 Fisk Alley","lng":37.6911,"lat":55.7646},
{"id":145,"name":"Huanggang","address":"05455 Troy Terrace","lng":114.872199,"lat":30.453667},
{"id":146,"name":"Nova Iguaçu","address":"42 Pierstorff Drive","lng":-43.4607419,"lat":-22.7561319},
{"id":147,"name":"Pukë","address":"105 Sachs Place","lng":19.8960968,"lat":42.0469772},
{"id":148,"name":"Néa Kíos","address":"4 Cordelia Alley","lng":22.7447696,"lat":37.5874845},
{"id":149,"name":"Banjar Banyuning Barat","address":"53861 Burrows Place","lng":"115.1021","lat":"-8.1145"},
{"id":150,"name":"Studzienice","address":"8 David Street","lng":17.5871593,"lat":54.0541924},
{"id":151,"name":"Stockholm","address":"46 Coleman Court","lng":18.0626161,"lat":59.31257},
{"id":152,"name":"Koloniya Zastav’ye","address":"5887 Weeping Birch Point","lng":"27.03333","lat":"50.81667"},
{"id":153,"name":"Pau","address":"3149 Killdeer Junction","lng":-0.3696612,"lat":43.2916776},
{"id":154,"name":"Nanjing","address":"46546 Cascade Point","lng":118.796877,"lat":32.060255},
{"id":155,"name":"Lokossa","address":"401 Roxbury Circle","lng":1.7198215,"lat":6.6448093},
{"id":156,"name":"Corupá","address":"5 Dayton Road","lng":-49.2452364,"lat":-26.4355066},
{"id":157,"name":"Cherëmushki","address":"922 Becker Crossing","lng":37.5470072,"lat":55.6686},
{"id":158,"name":"Bieqiao","address":"8289 Oakridge Junction","lng":113.207187,"lat":22.928305},
{"id":159,"name":"Celendín","address":"96754 Waywood Alley","lng":-78.1421905,"lat":-6.8666512},
{"id":160,"name":"Vukatanë","address":"93296 Pearson Crossing","lng":19.547883,"lat":42.0256691},
{"id":161,"name":"Kampungruweh","address":"51 Schiller Pass","lng":106.237505,"lat":-6.3668625},
{"id":162,"name":"Emmeloord","address":"6 Thierer Park","lng":5.7569797,"lat":52.6863286},
{"id":163,"name":"Aranhas","address":"32602 Graceland Hill","lng":-7.121411,"lat":40.1122778},
{"id":164,"name":"Myhove","address":"05 Doe Crossing Center","lng":25.379971,"lat":48.1509479},
{"id":165,"name":"Pasirreungit","address":"5407 Walton Circle","lng":108.0331918,"lat":-6.801576},
{"id":166,"name":"Tokuyama","address":"6 Heath Drive","lng":136.3420789,"lat":35.4441266},
{"id":167,"name":"Los Patios","address":"44889 Rutledge Lane","lng":-72.5441445,"lat":7.7013471},
{"id":168,"name":"Sydney","address":"5 Victoria Place","lng":151.2092955,"lat":-33.8688197},
{"id":169,"name":"Xihuaiba","address":"37 Hooker Crossing","lng":"105.91854","lat":"33.52575"},
{"id":170,"name":"Káto Nevrokópi","address":"375 Paget Hill","lng":23.9060624,"lat":41.3456622},
{"id":171,"name":"Yuyue","address":"4 Emmet Circle","lng":119.5738403,"lat":31.9617032},
{"id":172,"name":"Sukamaju","address":"2 Hanover Lane","lng":106.8502879,"lat":-6.4185424},
{"id":173,"name":"Arjasari","address":"5 Reindahl Road","lng":107.6451458,"lat":-7.0549395},
{"id":174,"name":"Banyubang","address":"4 Kennedy Trail","lng":112.4142453,"lat":-6.9244162},
{"id":175,"name":"Pereval'noe","address":"4009 Almo Junction","lng":34.3106713,"lat":44.849143},
{"id":176,"name":"Lajeosa","address":"58 Hansons Court","lng":-7.8440342,"lat":40.3779093},
{"id":177,"name":"Vila Nova de Milfontes","address":"6390 Gerald Way","lng":-8.7793637,"lat":37.7278257},
{"id":178,"name":"Dassun","address":"42 Schiller Place","lng":121.692832,"lat":17.659685},
{"id":179,"name":"Burnside","address":"8 Golden Leaf Crossing","lng":-3.5420426,"lat":55.9206837},
{"id":180,"name":"Dan Sadau","address":"24 Park Meadow Center","lng":6.4956455,"lat":11.2975389},
{"id":181,"name":"Berlin","address":"12390 Chinook Parkway","lng":13.2385645,"lat":52.5485032},
{"id":182,"name":"Maluso","address":"14706 Shoshone Parkway","lng":121.869164,"lat":6.5439791},
{"id":183,"name":"Wierzawice","address":"61 Banding Trail","lng":22.4674999,"lat":50.242123},
{"id":184,"name":"Skoútari","address":"29 Emmet Terrace","lng":23.5206341,"lat":41.0184587},
{"id":185,"name":"Vingåker","address":"450 Bluejay Pass","lng":15.8709393,"lat":59.0433753},
{"id":186,"name":"Chalu","address":"25 Thompson Center","lng":105.390592,"lat":27.685255},
{"id":187,"name":"Santa Justina","address":"42 Sycamore Plaza","lng":123.4768981,"lat":13.4008274},
{"id":188,"name":"Renfrew","address":"5263 Welch Park","lng":-76.6841393,"lat":45.4718665},
{"id":189,"name":"Gaojiabu","address":"3728 Trailsway Road","lng":112.453708,"lat":39.796583},
{"id":190,"name":"San Jose","address":"57 Homewood Way","lng":-121.89,"lat":37.34},
{"id":191,"name":"Río Blanquito","address":"986 Pierstorff Pass","lng":-87.8991514,"lat":15.7309288},
{"id":192,"name":"San Carlos","address":"217 Dwight Plaza","lng":-75.698571,"lat":8.797145},
{"id":193,"name":"Ramiriquí","address":"31 Mandrake Lane","lng":-73.335738,"lat":5.401841},
{"id":194,"name":"Mabini","address":"6487 Hagan Road","lng":120.9921722,"lat":14.5024732},
{"id":195,"name":"Klek","address":"466 Sachs Parkway","lng":20.4744696,"lat":45.4352011},
{"id":196,"name":"Tambo Grande","address":"538 Northport Crossing","lng":-80.3408061,"lat":-4.9295129},
{"id":197,"name":"Hpa-an","address":"71 Hudson Avenue","lng":97.6439611,"lat":16.875913},
{"id":198,"name":"Dewetsdorp","address":"65828 Glacier Hill Place","lng":26.667126,"lat":-29.5917671},
{"id":199,"name":"Darungan Lor","address":"959 Schmedeman Drive","lng":112.1579249,"lat":-7.7766561},
{"id":200,"name":"Vannes","address":"697 Brentwood Drive","lng":-2.7524402,"lat":47.6651939},
{"id":201,"name":"Ô Môn","address":"31997 Valley Edge Crossing","lng":105.6326457,"lat":10.1164943},
{"id":202,"name":"Ciénega","address":"37 Arapahoe Center","lng":-73.295881,"lat":5.409158},
{"id":203,"name":"Örnsköldsvik","address":"6686 Kennedy Circle","lng":18.6972941,"lat":63.2706498},
{"id":204,"name":"Nazaré","address":"406 Golden Leaf Crossing","lng":-9.0700991,"lat":39.6012147},
{"id":205,"name":"Roanoke","address":"10844 Anniversary Drive","lng":-79.94,"lat":37.27},
{"id":206,"name":"Foso","address":"89222 Fremont Plaza","lng":-1.2842887,"lat":5.7022374},
{"id":207,"name":"Gaoqiao","address":"6 Gulseth Street","lng":108.249509,"lat":31.364902},
{"id":208,"name":"Novaya Tavolzhanka","address":"75789 Barby Court","lng":36.8272273,"lat":50.3530658},
{"id":209,"name":"Ljupina","address":"66498 Basil Pass","lng":17.3811959,"lat":45.2188634},
{"id":210,"name":"Oliveira","address":"4137 Clove Trail","lng":-44.8256777,"lat":-20.6984299},
{"id":211,"name":"Shilipu","address":"6428 Warrior Street","lng":116.489848,"lat":39.91554},
{"id":212,"name":"Pop","address":"5 Derek Hill","lng":71.1032591,"lat":40.8814636},
{"id":213,"name":"Zabierzów","address":"6240 Old Shore Avenue","lng":19.8106779,"lat":50.1242949},
{"id":214,"name":"Chirongui","address":"19 Annamark Terrace","lng":45.1501554,"lat":-12.9361186},
{"id":215,"name":"Fermoy","address":"9 Spaight Circle","lng":-9.5003786,"lat":52.4458588},
{"id":216,"name":"São Brás de Alportel","address":"45633 Toban Pass","lng":-7.8890523,"lat":37.152576},
{"id":217,"name":"Kurmanayevka","address":"9702 Browning Pass","lng":"52.0675","lat":"52.5093"},
{"id":218,"name":"Oslo","address":"1086 School Pass","lng":10.8972927,"lat":59.9416014},
{"id":219,"name":"Kosonsoy Shahri","address":"973 Union Terrace","lng":"71.54239","lat":"41.26327"},
{"id":220,"name":"Sam Chuk","address":"3 Melvin Park","lng":100.0975221,"lat":14.7579513},
{"id":221,"name":"Rio Brilhante","address":"2 Barnett Center","lng":-54.5432691,"lat":-21.8047006},
{"id":222,"name":"Dalonghua","address":"69 Mayfield Court","lng":116.321659,"lat":24.057648},
{"id":223,"name":"Szlachta","address":"49 Comanche Alley","lng":18.1130662,"lat":53.7683238},
{"id":224,"name":"Nazrēt","address":"6 Claremont Court","lng":39.2583293,"lat":8.5263486},
{"id":225,"name":"Jiefang","address":"8 Oak Valley Crossing","lng":118.2536287,"lat":35.0702051},
{"id":226,"name":"Karditsomagoúla","address":"181 Lakewood Point","lng":21.9245288,"lat":39.3915625},
{"id":227,"name":"Gaoping","address":"5 Cambridge Street","lng":112.92392,"lat":35.797997},
{"id":228,"name":"Zaprudnya","address":"34 Birchwood Crossing","lng":37.4286044,"lat":56.5637319},
{"id":229,"name":"Kiuteta","address":"047 Daystar Hill","lng":115.1547554,"lat":-8.6870993},
{"id":230,"name":"Waitangi","address":"042 Loftsgordon Avenue","lng":174.8007417,"lat":-36.9120178},
{"id":231,"name":"Rancakole","address":"39985 New Castle Park","lng":107.6777669,"lat":-7.0725035},
{"id":232,"name":"Béreldange","address":"349 Weeping Birch Crossing","lng":6.0628765,"lat":49.689224},
{"id":233,"name":"Kalyny","address":"63559 Ronald Regan Street","lng":23.8730183,"lat":48.1417959},
{"id":234,"name":"Fushan","address":"5 Maywood Crossing","lng":113.121435,"lat":23.021478},
{"id":235,"name":"Lameira","address":"1 Petterle Pass","lng":-8.0224709,"lat":40.356194},
{"id":236,"name":"São Luís do Quitunde","address":"5 Ridge Oak Road","lng":-35.6095474,"lat":-9.3002357},
{"id":237,"name":"Maia","address":"5 Declaration Hill","lng":-25.3919027,"lat":37.8307393},
{"id":238,"name":"Wolanów","address":"8174 Oxford Trail","lng":20.9619096,"lat":51.3854243},
{"id":239,"name":"Yanji","address":"813 Reinke Crossing","lng":129.508945,"lat":42.891255},
{"id":240,"name":"Sovetskaya Gavan’","address":"833 Talisman Hill","lng":140.2653547,"lat":48.9755228},
{"id":241,"name":"Driyorejo","address":"7 Fieldstone Place","lng":112.6079459,"lat":-7.3445521},
{"id":242,"name":"Hetou","address":"5 John Wall Drive","lng":116.6930225,"lat":24.3520171},
{"id":243,"name":"Andir","address":"6 Bellgrove Pass","lng":107.5771444,"lat":-6.9114323},
{"id":244,"name":"Bom Conselho","address":"57115 Manitowish Court","lng":-36.6150136,"lat":-9.2786495},
{"id":245,"name":"Runaway Bay","address":"8 Tomscot Junction","lng":-77.3266991,"lat":18.4562829},
{"id":246,"name":"Kudang","address":"37 Dunning Lane","lng":107.9836107,"lat":-7.0345626},
{"id":247,"name":"Qixing","address":"5 Manufacturers Avenue","lng":110.317826,"lat":25.2527},
{"id":248,"name":"Quetigny","address":"618 Katie Point","lng":5.1041811,"lat":47.3097201},
{"id":249,"name":"Igarapava","address":"82039 Riverside Pass","lng":-47.7563994,"lat":-20.0421785},
{"id":250,"name":"Kivertsi","address":"72 Moulton Point","lng":25.4566978,"lat":50.8323221},
{"id":251,"name":"Zhijin","address":"42756 Blue Bill Park Avenue","lng":105.770542,"lat":26.663449},
{"id":252,"name":"Prozor","address":"5 Hollow Ridge Crossing","lng":17.5393153,"lat":43.8234396},
{"id":253,"name":"Maracás","address":"29935 Rowland Avenue","lng":-40.5533995,"lat":-13.5307334},
{"id":254,"name":"Skoroszyce","address":"08 Bartillon Park","lng":17.3802606,"lat":50.5982316},
{"id":255,"name":"Železná Ruda","address":"6312 Carey Parkway","lng":13.2297698,"lat":49.1449758},
{"id":256,"name":"Richky","address":"16 Dunning Street","lng":34.4870021,"lat":51.1164143},
{"id":257,"name":"Abucayan","address":"2805 Maple Wood Drive","lng":123.9154682,"lat":9.9160172},
{"id":258,"name":"Duraznopampa","address":"90 Rigney Way","lng":-77.815285,"lat":-6.5581455},
{"id":259,"name":"Beiwenquan","address":"76 Sage Hill","lng":106.410852,"lat":29.859178},
{"id":260,"name":"Volodars’k-Volyns’kyy","address":"141 Sloan Circle","lng":"28.443","lat":"50.59764"},
{"id":261,"name":"Tsuma","address":"91 Buhler Avenue","lng":131.3999389,"lat":32.1030654},
{"id":262,"name":"Mukhen","address":"0 Holmberg Circle","lng":135.672144,"lat":48.103358},
{"id":263,"name":"Figueiredo","address":"186 Norway Maple Circle","lng":-8.4423541,"lat":41.5027813},
{"id":264,"name":"Bunisari","address":"52 Meadow Vale Parkway","lng":108.3979331,"lat":-7.6557879},
{"id":265,"name":"Zaindainxoi","address":"6 Fisk Trail","lng":76.798772,"lat":30.6902716},
{"id":266,"name":"Loakulu","address":"17 Oxford Circle","lng":116.8097817,"lat":-0.6209357},
{"id":267,"name":"Lyasny","address":"21029 Carey Crossing","lng":27.6885079,"lat":54.0045473},
{"id":268,"name":"Feuknoni","address":"04 Dwight Junction","lng":"124.5163","lat":"-9.8502"},
{"id":269,"name":"Midões","address":"3314 Prairieview Hill","lng":-8.5818392,"lat":41.5023719},
{"id":270,"name":"Kauswagan","address":"179 Oriole Plaza","lng":124.086692,"lat":8.189424},
{"id":271,"name":"Biskamzha","address":"0 Rockefeller Crossing","lng":"89.52722","lat":"53.44972"},
{"id":272,"name":"Miaoli","address":"957 Bayside Street","lng":120.8214265,"lat":24.560159},
{"id":273,"name":"Xixiang","address":"4958 Vernon Alley","lng":107.766613,"lat":32.983101},
{"id":274,"name":"Saint-Ouen","address":"25605 Sheridan Drive","lng":-1.1457859,"lat":46.5993244},
{"id":275,"name":"Selasari","address":"9 Scofield Street","lng":108.5344435,"lat":-7.6031332},
{"id":276,"name":"Sukadana","address":"85072 Boyd Parkway","lng":110.0926112,"lat":-1.2468663},
{"id":277,"name":"Yantal’","address":"76203 Carey Parkway","lng":131.900455,"lat":43.126984},
{"id":278,"name":"Ādam","address":"828 Larry Center","lng":57.5249708,"lat":22.386514},
{"id":279,"name":"Aracati","address":"8437 Scoville Avenue","lng":-37.7688612,"lat":-4.5612094},
{"id":280,"name":"Areia Branca","address":"7896 Comanche Plaza","lng":-37.3185938,"lat":-10.7884789},
{"id":281,"name":"Votorantim","address":"3 Hovde Avenue","lng":-47.4563943,"lat":-23.5388072},
{"id":282,"name":"Xiangcheng","address":"03 Bonner Junction","lng":114.875333,"lat":33.465838},
{"id":283,"name":"Palumbungan","address":"5067 Tennyson Park","lng":109.3575011,"lat":-7.2652612},
{"id":284,"name":"Pailitas","address":"111 Londonderry Point","lng":-73.626268,"lat":8.959667},
{"id":285,"name":"Uvarovo","address":"95408 Sachs Place","lng":42.344717,"lat":52.0016128},
{"id":286,"name":"Pereleshino","address":"78756 Blaine Hill","lng":40.1348656,"lat":51.7386378},
{"id":287,"name":"Wierzchucino","address":"4 Trailsway Court","lng":17.9833033,"lat":54.7879955},
{"id":288,"name":"Komysh-Zorya","address":"20176 Kim Plaza","lng":36.6901351,"lat":47.3292629},
{"id":289,"name":"Bofuer","address":"3746 Ilene Trail","lng":"133.7626","lat":"-3.0114"},
{"id":290,"name":"Wa’eryi","address":"65 Anthes Drive","lng":100.547156,"lat":33.320546},
{"id":291,"name":"Shuimen","address":"3 New Castle Drive","lng":114.4046814,"lat":23.0878573},
{"id":292,"name":"Jixiang","address":"8 Meadow Vale Road","lng":121.1241334,"lat":30.9882241},
{"id":293,"name":"Ulundi","address":"5215 School Center","lng":31.4256183,"lat":-28.3307679},
{"id":294,"name":"Okhtyrka","address":"54239 Sommers Junction","lng":34.9005644,"lat":50.3150962},
{"id":295,"name":"Ducheng","address":"766 Texas Junction","lng":111.539333,"lat":23.241655},
{"id":296,"name":"Jinniu","address":"95 Merrick Street","lng":104.052236,"lat":30.691359},
{"id":297,"name":"Carice","address":"6 Vahlen Pass","lng":-71.831932,"lat":19.3789666},
{"id":298,"name":"Nysa","address":"84 Leroy Hill","lng":17.3392829,"lat":50.4703083},
{"id":299,"name":"Puńsk","address":"34179 Grover Point","lng":23.1797382,"lat":54.251638},
{"id":300,"name":"Wenchi","address":"86 Hoard Circle","lng":-2.1008486,"lat":7.7419585},
{"id":301,"name":"Vidin","address":"438 Prentice Street","lng":22.9355752,"lat":44.0086458},
{"id":302,"name":"Genengan Kulon","address":"3249 Cardinal Parkway","lng":112.6034763,"lat":-8.0509691},
{"id":303,"name":"Samur","address":"686 Arrowood Avenue","lng":48.4401128,"lat":41.63514},
{"id":304,"name":"Bairros","address":"9302 Lien Pass","lng":-8.5959297,"lat":41.3427327},
{"id":305,"name":"Pilzno","address":"42480 Schurz Terrace","lng":21.29492,"lat":49.97976},
{"id":306,"name":"Banjar Tibubiyu Kaja","address":"4613 Kinsman Park","lng":"115.0498","lat":"-8.5588"},
{"id":307,"name":"Hila","address":"957 Manitowish Street","lng":128.1160213,"lat":-3.6005866},
{"id":308,"name":"Nyagla","address":"7 Roxbury Junction","lng":96.842945,"lat":32.036154},
{"id":309,"name":"Bárrio","address":"197 Kropf Center","lng":-8.5356936,"lat":41.7958532},
{"id":310,"name":"Cholet","address":"7298 Debra Crossing","lng":-0.8816138,"lat":47.0615944},
{"id":311,"name":"Yili","address":"98143 Bunker Hill Center","lng":81.324136,"lat":43.916823},
{"id":312,"name":"Orléans","address":"0562 Spohn Alley","lng":2.8002946,"lat":47.3591366},
{"id":313,"name":"Ust’-Izhora","address":"23 Boyd Trail","lng":30.6044813,"lat":59.8037463},
{"id":314,"name":"Casa Nova","address":"538 Di Loreto Circle","lng":-8.4748384,"lat":42.0269548},
{"id":315,"name":"Osogbo","address":"88 Blue Bill Park Parkway","lng":4.5418141,"lat":7.7826709},
{"id":316,"name":"Hanfeng","address":"1858 Carberry Junction","lng":113.290609,"lat":23.084827},
{"id":317,"name":"Heyin","address":"44 Evergreen Lane","lng":108.260701,"lat":25.525292},
{"id":318,"name":"Lorient","address":"94803 Forest Dale Junction","lng":4.9157564,"lat":44.8671415},
{"id":319,"name":"Serhetabat","address":"654 Graceland Circle","lng":62.3271815,"lat":35.275142},
{"id":320,"name":"Tuapukan","address":"0740 Katie Crossing","lng":123.7727229,"lat":-10.1082359},
{"id":321,"name":"Mainit","address":"1640 Colorado Pass","lng":125.5240221,"lat":9.5403936},
{"id":322,"name":"Sandaotong","address":"71335 Muir Way","lng":129.745739,"lat":45.683569},
{"id":323,"name":"Banepa","address":"645 American Ash Lane","lng":85.5277488,"lat":27.6332252},
{"id":324,"name":"Shijia","address":"60221 Continental Plaza","lng":117.136252,"lat":29.649109},
{"id":325,"name":"Guxian","address":"9145 Lunder Trail","lng":111.920465,"lat":36.266914},
{"id":326,"name":"Feondari","address":"4573 Coolidge Circle","lng":"122.0326","lat":"-8.6678"},
{"id":327,"name":"Kampungbaru","address":"7 Fisk Street","lng":102.969002,"lat":-1.079239},
{"id":328,"name":"Krajan Timur Suger Kidul","address":"5 Ohio Lane","lng":"113.7809","lat":"-8.0526"},
{"id":329,"name":"San Jose","address":"286 Amoth Junction","lng":121.0204582,"lat":14.5699334},
{"id":330,"name":"Al Hufūf","address":"104 Kenwood Terrace","lng":49.6299077,"lat":25.3141558},
{"id":331,"name":"Wat Sing","address":"5026 Arizona Circle","lng":99.9688636,"lat":15.2081378},
{"id":332,"name":"Al Jīb","address":"73376 Holmberg Pass","lng":35.183103,"lat":31.850989},
{"id":333,"name":"Opechenskiy Posad","address":"80448 Homewood Circle","lng":34.1125526,"lat":58.2760382},
{"id":334,"name":"Lusaka","address":"5 Transport Alley","lng":28.3228165,"lat":-15.3875259},
{"id":335,"name":"Quinta dos Frades","address":"2 Clemons Circle","lng":-8.7451818,"lat":39.7553682},
{"id":336,"name":"Saarbrücken","address":"25 Hooker Point","lng":7.0075837,"lat":49.2088164},
{"id":337,"name":"Sulang Tengah","address":"38 Fordem Plaza","lng":"111.3806","lat":"-6.8065"},
{"id":338,"name":"Singapore","address":"33504 Green Ridge Circle","lng":103.819836,"lat":1.352083},
{"id":339,"name":"Sucre","address":"386 Colorado Road","lng":-78.1350635,"lat":-6.9415153},
{"id":340,"name":"Partesh","address":"0 Kennedy Street","lng":21.4332317,"lat":42.4008473},
{"id":341,"name":"Akaki","address":"1416 Birchwood Crossing","lng":33.1323409,"lat":35.1379343},
{"id":342,"name":"Grenoble","address":"2386 Superior Avenue","lng":5.7286053,"lat":45.1903117},
{"id":343,"name":"Panay","address":"2284 Fieldstone Hill","lng":121.0088573,"lat":14.6101685},
{"id":344,"name":"Tangwāni","address":"986 Commercial Parkway","lng":69.0006638,"lat":28.2706055},
{"id":345,"name":"Thị Trấn Hùng Quốc","address":"26767 Buell Alley","lng":106.3287199,"lat":22.8533627},
{"id":346,"name":"Morelos","address":"69678 Norway Maple Hill","lng":-99.1303962,"lat":19.4468231},
{"id":347,"name":"Khurriānwāla","address":"49757 Jay Street","lng":73.2571865,"lat":31.5233543},
{"id":348,"name":"Ubá","address":"714 Dennis Pass","lng":-42.9426188,"lat":-21.120123},
{"id":349,"name":"Taocun","address":"081 Summer Ridge Crossing","lng":112.464886,"lat":39.442222},
{"id":350,"name":"Novouzensk","address":"18570 Lake View Park","lng":48.1450932,"lat":50.4438122},
{"id":351,"name":"Santa Eulália","address":"0 Namekagon Plaza","lng":-8.2111164,"lat":37.0901727},
{"id":352,"name":"Nanjie","address":"6046 Briar Crest Pass","lng":116.456946,"lat":39.932164},
{"id":353,"name":"Khrebtovaya","address":"5 Morningstar Center","lng":104.2143124,"lat":56.7012772},
{"id":354,"name":"Shahr-e Qods","address":"50956 Trailsway Road","lng":51.1062824,"lat":35.70265},
{"id":355,"name":"Pingle","address":"94947 Canary Center","lng":110.643305,"lat":24.633362},
{"id":356,"name":"La Celia","address":"20 Crowley Terrace","lng":-76.003424,"lat":5.003233},
{"id":357,"name":"Hefu","address":"4248 Roth Alley","lng":117.227219,"lat":31.820591},
{"id":358,"name":"Ochobo","address":"0 Northport Point","lng":7.9797219,"lat":7.1809842},
{"id":359,"name":"Languan","address":"267 Spaight Crossing","lng":120.301716,"lat":31.598726},
{"id":360,"name":"Temblador","address":"9 Stephen Plaza","lng":-62.6471664,"lat":9.0056327},
{"id":361,"name":"Hirosaki","address":"1 Meadow Valley Center","lng":137.0871404,"lat":35.0346917},
{"id":362,"name":"Sorong","address":"1 Thompson Circle","lng":131.255828,"lat":-0.8761629},
{"id":363,"name":"Sarzedo","address":"71 Namekagon Avenue","lng":-44.1411883,"lat":-20.0325016},
{"id":364,"name":"Buy","address":"3868 Oak Center","lng":41.5474702,"lat":58.4705978},
{"id":365,"name":"Zhuping","address":"423 Susan Parkway","lng":108.739519,"lat":27.062407},
{"id":366,"name":"Cachí","address":"91417 Fremont Avenue","lng":-58.4114593,"lat":-34.6507337},
{"id":367,"name":"Leiria","address":"8 Tony Point","lng":-8.852352,"lat":39.7191273},
{"id":368,"name":"Pengwan","address":"25 School Terrace","lng":116.670173,"lat":30.920727},
{"id":369,"name":"Makilala","address":"5200 Sugar Crossing","lng":125.1635402,"lat":6.8928179},
{"id":370,"name":"Louka","address":"6463 Hallows Drive","lng":15.5547835,"lat":49.0498305},
{"id":371,"name":"Puerto Deseado","address":"229 Reinke Alley","lng":-58.870055,"lat":-34.5685748},
{"id":372,"name":"Göteborg","address":"21 Towne Circle","lng":11.9809571,"lat":57.6795423},
{"id":373,"name":"Ban Nong Wua So","address":"9695 Paget Alley","lng":102.5704008,"lat":17.1782591},
{"id":374,"name":"Minbu","address":"1 Crowley Crossing","lng":94.8702156,"lat":20.1713723},
{"id":375,"name":"Gaoliban","address":"263 Donald Plaza","lng":103.947377,"lat":36.332663},
{"id":376,"name":"Tunbao","address":"8959 Brentwood Court","lng":104.8265942,"lat":26.600973},
{"id":377,"name":"Xigaoshan","address":"1 Nova Place","lng":115.004962,"lat":31.556273},
{"id":378,"name":"Braunschweig","address":"97973 Shelley Circle","lng":10.5665003,"lat":52.2346447},
{"id":379,"name":"Bamencheng","address":"64700 Crest Line Drive","lng":120.16366,"lat":33.347316},
{"id":380,"name":"Gaoliban","address":"4413 Shoshone Way","lng":103.947377,"lat":36.332663},
{"id":381,"name":"Nanterre","address":"7593 Warner Drive","lng":2.215722,"lat":48.8865404},
{"id":382,"name":"La Rioja","address":"329 Harbort Way","lng":-60.6961061,"lat":-32.9377962},
{"id":383,"name":"Šventoji","address":"9208 West Pass","lng":24.7743055,"lat":55.2474741},
{"id":384,"name":"Dragash","address":"069 Killdeer Point","lng":20.6511592,"lat":42.0615398},
{"id":385,"name":"Kant","address":"135 Hudson Park","lng":74.8448648,"lat":42.8883195},
{"id":386,"name":"Rosmalen","address":"0 Eagle Crest Alley","lng":5.4008695,"lat":51.7286846},
{"id":387,"name":"Canggetelo","address":"61 Union Junction","lng":"113.8825","lat":"-6.9072"},
{"id":388,"name":"Yangsi","address":"87348 Arrowood Junction","lng":121.493463,"lat":31.161067},
{"id":389,"name":"Ashley","address":"51326 Anniversary Court","lng":-2.2685462,"lat":51.4139633},
{"id":390,"name":"Kaduna","address":"4 Iowa Park","lng":7.4165053,"lat":10.5104642},
{"id":391,"name":"Baroh","address":"3 Stuart Hill","lng":95.9872235,"lat":5.246361},
{"id":392,"name":"Yancheng","address":"95 Macpherson Plaza","lng":120.16366,"lat":33.347316},
{"id":393,"name":"Mojo","address":"0 Dennis Plaza","lng":111.9284017,"lat":-7.898852},
{"id":394,"name":"Ryazan’","address":"7070 Reinke Point","lng":39.8560057,"lat":54.6192996},
{"id":395,"name":"Kombolcha","address":"080 Stoughton Junction","lng":39.7291837,"lat":11.0849336},
{"id":396,"name":"Archángelos","address":"6713 Independence Junction","lng":28.116926,"lat":36.2145292},
{"id":397,"name":"Wañgan","address":"2 Packers Road","lng":125.4423957,"lat":7.1760285},
{"id":398,"name":"Mérignac","address":"0689 Gateway Avenue","lng":-2.0532343,"lat":47.9544744},
{"id":399,"name":"Lanos","address":"142 Burning Wood Plaza","lng":"120.4087","lat":"-8.2824"},
{"id":400,"name":"Blainville","address":"36 Manitowish Junction","lng":-73.9284855,"lat":45.7013243},
{"id":401,"name":"Yanmen","address":"175 Rieder Pass","lng":112.865891,"lat":39.193073},
{"id":402,"name":"Arvika","address":"418 Fuller Way","lng":12.6108644,"lat":59.6715102},
{"id":403,"name":"Sumy","address":"91 Transport Alley","lng":34.7981,"lat":50.9077},
{"id":404,"name":"Herīs","address":"8468 Darwin Terrace","lng":47.1168459,"lat":38.2468667},
{"id":405,"name":"Carvalhinho","address":"71209 Acker Center","lng":-8.971304,"lat":38.651124},
{"id":406,"name":"Booterstown","address":"790 Ronald Regan Lane","lng":-6.1979853,"lat":53.3046353},
{"id":407,"name":"Jinzao","address":"59006 Susan Lane","lng":121.1268459,"lat":41.095685},
{"id":408,"name":"Shancheng","address":"7792 Golf View Circle","lng":114.184427,"lat":35.897702},
{"id":409,"name":"Tiberias","address":"285 Butternut Road","lng":35.530973,"lat":32.795859},
{"id":410,"name":"Xianyan","address":"9 Jenifer Plaza","lng":108.708991,"lat":34.329605},
{"id":411,"name":"Bojawa","address":"86722 West Park","lng":"120.9593","lat":"-8.8341"},
{"id":412,"name":"Giedlarowa","address":"4572 Ryan Alley","lng":22.3984964,"lat":50.2308874},
{"id":413,"name":"Yangjiao","address":"602 Pankratz Park","lng":116.809657,"lat":39.944315},
{"id":414,"name":"Taoyuan","address":"4 Pennsylvania Terrace","lng":121.3009798,"lat":24.9936281},
{"id":415,"name":"Luka nad Jihlavou","address":"2654 Maryland Drive","lng":15.7019393,"lat":49.374032},
{"id":416,"name":"Xinglongchang","address":"5708 Hoffman Drive","lng":104.585735,"lat":29.718419},
{"id":417,"name":"Chengdong","address":"08653 Norway Maple Road","lng":101.803717,"lat":36.599744},
{"id":418,"name":"Gojō","address":"26378 Forest Dale Park","lng":135.6964987,"lat":34.3507417},
{"id":419,"name":"Jiahe","address":"505 Bayside Center","lng":112.36902,"lat":25.587519},
{"id":420,"name":"Tournon-sur-Rhône","address":"4 Rigney Place","lng":4.8398662,"lat":45.052484},
{"id":421,"name":"Daliuhang","address":"638 Northwestern Street","lng":118.874552,"lat":39.500179},
{"id":422,"name":"Hanyuan","address":"3398 Nevada Trail","lng":102.652483,"lat":29.344616},
{"id":423,"name":"Concepción","address":"0752 Carberry Avenue","lng":-73.0443904,"lat":-36.8201352},
{"id":424,"name":"Abadou","address":"8083 Tomscot Point","lng":-7.2858562,"lat":31.4599979},
{"id":425,"name":"Jaboatão","address":"9 Westridge Parkway","lng":-35.0169621,"lat":-8.1132729},
{"id":426,"name":"Falun","address":"2 Surrey Hill","lng":15.6073973,"lat":60.6221986},
{"id":427,"name":"Madamba","address":"68 Clove Road","lng":124.106681,"lat":7.834501},
{"id":428,"name":"Dmanisi","address":"11328 Elmside Street","lng":44.2073125,"lat":41.3298054},
{"id":429,"name":"Judita","address":"61 Springs Pass","lng":"35.70802","lat":"32.40792"},
{"id":430,"name":"Kubangeceng","address":"30858 Northport Hill","lng":"108.1264","lat":"-7.2966"},
{"id":431,"name":"Xinyi","address":"95 Sutherland Street","lng":110.947043,"lat":22.354385},
{"id":432,"name":"San Juan de Manapiare","address":"6 Di Loreto Way","lng":-66.054451,"lat":5.3245686},
{"id":433,"name":"Xarardheere","address":"4 Service Alley","lng":47.8563151,"lat":4.6559524},
{"id":434,"name":"Terangun","address":"0547 Boyd Center","lng":96.9638624,"lat":3.9990545},
{"id":435,"name":"Ceerigaabo","address":"1955 Bobwhite Center","lng":47.3657603,"lat":10.6149654},
{"id":436,"name":"Xinsheng","address":"1417 Schurz Hill","lng":105.220236,"lat":31.029897},
{"id":437,"name":"Padaran","address":"87326 Express Terrace","lng":111.3947978,"lat":-6.7115834},
{"id":438,"name":"Kalmar","address":"9 Macpherson Circle","lng":16.3281272,"lat":56.6519542},
{"id":439,"name":"Sigli","address":"4 Manitowish Road","lng":95.9602371,"lat":5.3847763},
{"id":440,"name":"Song","address":"0 Del Mar Parkway","lng":100.2151578,"lat":18.5769276},
{"id":441,"name":"Niort","address":"79440 Welch Parkway","lng":-0.4738335,"lat":46.1839042},
{"id":442,"name":"‘Attīl","address":"34653 Nancy Circle","lng":35.072538,"lat":32.370069},
{"id":443,"name":"Landim","address":"37 Marcy Pass","lng":-8.4673336,"lat":41.3760282},
{"id":444,"name":"Albardón","address":"0 John Wall Way","lng":-68.1324297,"lat":-38.9395203},
{"id":445,"name":"Shijiao","address":"5 Mosinee Hill","lng":113.824887,"lat":23.259479},
{"id":446,"name":"Le Pontet","address":"48352 Arrowood Plaza","lng":4.5815725,"lat":44.303454},
{"id":447,"name":"Zhuping","address":"1221 Kenwood Way","lng":108.739519,"lat":27.062407},
{"id":448,"name":"Bellevue","address":"1834 Lakewood Parkway","lng":-122.1112721,"lat":47.6120759},
{"id":449,"name":"Buurhakaba","address":"57 Eliot Plaza","lng":44.0793911,"lat":2.7991084},
{"id":450,"name":"Burevestnik","address":"7918 Corry Place","lng":43.7911745,"lat":56.1465144},
{"id":451,"name":"Qutqashen","address":"019 Fremont Junction","lng":47.8699826,"lat":40.9981633},
{"id":452,"name":"Kerrouchen","address":"355 Blaine Center","lng":-5.3193997,"lat":32.7986666},
{"id":453,"name":"Dapo","address":"6 Farmco Center","lng":103.6645428,"lat":25.6759249},
{"id":454,"name":"Paracuru","address":"03 Marcy Avenue","lng":-39.0303806,"lat":-3.4142906},
{"id":455,"name":"Young America","address":"22 Laurel Avenue","lng":-93.92,"lat":44.81},
{"id":456,"name":"Sendangrejo","address":"26098 Union Avenue","lng":110.2683286,"lat":-7.7262888},
{"id":457,"name":"Bulls","address":"2119 Porter Plaza","lng":175.2929384,"lat":-40.1929865},
{"id":458,"name":"Sigavé","address":"82 Northridge Circle","lng":"-178.16551","lat":"-14.29034"},
{"id":459,"name":"Covas da Raposa","address":"0 Ronald Regan Place","lng":-9.1141307,"lat":38.4600166},
{"id":460,"name":"Rybarzowice","address":"16 Southridge Lane","lng":19.1018274,"lat":49.7294521},
{"id":461,"name":"Jiangpan","address":"2493 Canary Plaza","lng":108.273158,"lat":22.781631},
{"id":462,"name":"Zhongtong","address":"316 Riverside Park","lng":116.0625588,"lat":36.448127},
{"id":463,"name":"Yangyu","address":"1 Victoria Avenue","lng":114.120108,"lat":37.337302},
{"id":464,"name":"Del Campillo","address":"525 Petterle Crossing","lng":-58.4794982,"lat":-34.5906948},
{"id":465,"name":"Warungtanjung","address":"71463 Randy Center","lng":98.6783333,"lat":3.5053306},
{"id":466,"name":"Buffalo","address":"1 East Park","lng":-78.7589558,"lat":42.9202891},
{"id":467,"name":"Liutan","address":"04 Victoria Circle","lng":114.404754,"lat":15.488092},
{"id":468,"name":"Xuxiake","address":"104 1st Hill","lng":120.2951156,"lat":31.7659313},
{"id":469,"name":"Pedra Branca","address":"438 Petterle Avenue","lng":-38.0843008,"lat":-7.4157126},
{"id":470,"name":"Gaspra","address":"3 Hollow Ridge Alley","lng":34.1121629,"lat":44.4353271},
{"id":471,"name":"Cipanggung","address":"85 Burrows Avenue","lng":106.3683065,"lat":-6.8174513},
{"id":472,"name":"Gayle","address":"617 Cherokee Plaza","lng":-77.0075055,"lat":18.3267954},
{"id":473,"name":"Bakov nad Jizerou","address":"5 Magdeline Center","lng":14.9414959,"lat":50.4823057},
{"id":474,"name":"Ipatinga","address":"370 Parkside Crossing","lng":-42.5480125,"lat":-19.4707617},
{"id":475,"name":"Dagur","address":"8 Erie Street","lng":"95.73333","lat":"36.41667"},
{"id":476,"name":"Joutseno","address":"4 Butterfield Center","lng":28.5010914,"lat":61.1174188},
{"id":477,"name":"Pueblo Nuevo","address":"15498 Toban Avenue","lng":-105.547392,"lat":36.438167},
{"id":478,"name":"Pimentel","address":"0 Sutteridge Plaza","lng":-70.4144776,"lat":18.9237513},
{"id":479,"name":"Ortiga","address":"0892 Milwaukee Center","lng":-8.0215061,"lat":39.4865544},
{"id":480,"name":"Marićka","address":"3633 Esch Terrace","lng":16.8537839,"lat":44.8657158},
{"id":481,"name":"Ilhéus","address":"78 Fremont Crossing","lng":-39.0459316,"lat":-14.7929927},
{"id":482,"name":"Greenville","address":"68810 Cascade Circle","lng":-9.0377612,"lat":5.0153677},
{"id":483,"name":"Zhixia","address":"4094 David Terrace","lng":115.118091,"lat":26.97139},
{"id":484,"name":"Bundoran","address":"4594 Barby Alley","lng":-8.2817353,"lat":54.4771768},
{"id":485,"name":"Cana Chapetón","address":"129 Waywood Hill","lng":-71.252526,"lat":19.604951},
{"id":486,"name":"Jinchang","address":"799 Toban Terrace","lng":102.188043,"lat":38.520089},
{"id":487,"name":"Wamba","address":"6 Bartillon Street","lng":8.6023254,"lat":8.943208},
{"id":488,"name":"Oslo","address":"60 Brown Court","lng":10.8972927,"lat":59.9416014},
{"id":489,"name":"Sidenreng","address":"78 Hollow Ridge Center","lng":119.8410174,"lat":-3.9461346},
{"id":490,"name":"La Esperanza","address":"60 School Center","lng":-73.327532,"lat":7.639571},
{"id":491,"name":"Zhongpai","address":"4 Kipling Point","lng":105.196902,"lat":37.499972},
{"id":492,"name":"Zhudian","address":"38 Prairieview Trail","lng":114.022298,"lat":33.011529},
{"id":493,"name":"Baqiu","address":"32733 Londonderry Point","lng":115.1613612,"lat":27.5558363},
{"id":494,"name":"Saint-Pierre-Montlimart","address":"29 Veith Lane","lng":-1.0263278,"lat":47.2662587},
{"id":495,"name":"Handan","address":"31987 Miller Avenue","lng":114.538961,"lat":36.625656},
{"id":496,"name":"Haparanda","address":"962 Heffernan Road","lng":23.9406659,"lat":65.9360924},
{"id":497,"name":"Peuara","address":"4 Golden Leaf Crossing","lng":123.769227,"lat":-8.241702},
{"id":498,"name":"Jihlava","address":"8105 Lakeland Way","lng":15.5870415,"lat":49.3983782},
{"id":499,"name":"Casal do Sapo","address":"9 Commercial Pass","lng":-9.0817894,"lat":38.5537924},
{"id":500,"name":"Dzaoudzi","address":"8 Transport Circle","lng":45.2582086,"lat":-12.7822122},
{"id":501,"name":"Prozor","address":"04 Beilfuss Hill","lng":17.5393153,"lat":43.8234396},
{"id":502,"name":"Baru","address":"612 Packers Court","lng":108.2941031,"lat":-2.8534379},
{"id":503,"name":"Madura","address":"4 Valley Edge Junction","lng":113.287085,"lat":-7.0777326},
{"id":504,"name":"Arboga","address":"5645 Northwestern Road","lng":11.9120278,"lat":57.7193237},
{"id":505,"name":"Claremont","address":"826 Arizona Terrace","lng":18.4740875,"lat":-33.9842244},
{"id":506,"name":"South Tangerang","address":"5524 7th Terrace","lng":106.7112933,"lat":-6.2835218},
{"id":507,"name":"Sulahan","address":"3611 Thierer Street","lng":115.3459831,"lat":-8.4164207},
{"id":508,"name":"Rizári","address":"57239 Warner Park","lng":22.0874496,"lat":40.7843506},
{"id":509,"name":"Rawaglagah","address":"85 Sullivan Plaza","lng":107.0585813,"lat":-6.3677078},
{"id":510,"name":"Berlin","address":"2 Elka Crossing","lng":13.4815474,"lat":52.4609077},
{"id":511,"name":"Mutā Khān","address":"6 North Court","lng":"68.8663","lat":"33.24001"},
{"id":512,"name":"Pambuhan","address":"057 Jana Road","lng":124.9269131,"lat":12.563347},
{"id":513,"name":"Huashan","address":"7 Carberry Street","lng":110.084789,"lat":34.477861},
{"id":514,"name":"Rivera","address":"16188 Northwestern Place","lng":-75.2594359,"lat":2.777781},
{"id":515,"name":"El Soberbio","address":"03 Mitchell Crossing","lng":-54.198107,"lat":-27.284815},
{"id":516,"name":"Dongmafang","address":"0848 Menomonie Park","lng":112.337992,"lat":38.681707},
{"id":517,"name":"San José del Guaviare","address":"1 Fair Oaks Avenue","lng":-71.2874209,"lat":2.5559441},
{"id":518,"name":"Harjamukti","address":"32133 Annamark Parkway","lng":108.5522531,"lat":-6.7533085},
{"id":519,"name":"Xinhang","address":"53082 Bashford Court","lng":119.569305,"lat":31.068734},
{"id":520,"name":"Santiago","address":"94134 Claremont Park","lng":-56.7664844,"lat":-27.1435718},
{"id":521,"name":"Chom Bueng","address":"628 Granby Alley","lng":99.6118667,"lat":13.6119882},
{"id":522,"name":"Saki","address":"77 Hayes Circle","lng":3.394332,"lat":8.6725571},
{"id":523,"name":"Berendeyevo","address":"736 Lillian Drive","lng":39.3104788,"lat":43.9480111},
{"id":524,"name":"Pisão","address":"9455 Claremont Terrace","lng":-8.3092933,"lat":40.1394691},
{"id":525,"name":"Negoslavci","address":"4 Montana Lane","lng":18.9948258,"lat":45.2710602},
{"id":526,"name":"Tuchoměřice","address":"06149 Bayside Place","lng":14.2794469,"lat":50.1328637},
{"id":527,"name":"Peremyshl’","address":"2 Vidon Hill","lng":36.15775,"lat":54.2618911},
{"id":528,"name":"Svobody","address":"57536 Susan Park","lng":31.6968796,"lat":59.1284714},
{"id":529,"name":"Dadamtu","address":"5 Northridge Street","lng":81.318189,"lat":43.977331},
{"id":530,"name":"Shahre Jadide Andisheh","address":"3 Lerdahl Way","lng":"51.0193","lat":"35.6803"},
{"id":531,"name":"Kotovo","address":"3851 Reinke Point","lng":30.2375726,"lat":60.5481501},
{"id":532,"name":"Penang","address":"82458 Hudson Point","lng":100.3091,"lat":5.4356367},
{"id":533,"name":"Barcin","address":"46259 Ruskin Drive","lng":17.950135,"lat":52.8769629},
{"id":534,"name":"Niopanda","address":"43186 Sherman Trail","lng":121.918866,"lat":-8.5476223},
{"id":535,"name":"San Martín de los Andes","address":"62 Kings Junction","lng":-71.3377934,"lat":-40.1500467},
{"id":536,"name":"Wuci","address":"2161 Little Fleur Lane","lng":120.31191,"lat":31.491169},
{"id":537,"name":"Gaiyang","address":"47675 Eliot Court","lng":106.630153,"lat":26.647661},
{"id":538,"name":"Batubantar","address":"37 Londonderry Hill","lng":106.0419754,"lat":-6.3486919},
{"id":539,"name":"Jesús Menéndez","address":"9 Harbort Way","lng":-76.4736602,"lat":21.1596123},
{"id":540,"name":"Volkhovskiy","address":"579 Sheridan Avenue","lng":32.3469693,"lat":59.903525},
{"id":541,"name":"Pangian","address":"57 Briar Crest Crossing","lng":125.5372025,"lat":6.456558},
{"id":542,"name":"Pruchnik","address":"67460 Carey Way","lng":22.5155104,"lat":49.9061322},
{"id":543,"name":"Hanting","address":"96 Dahle Circle","lng":119.219734,"lat":36.77549},
{"id":544,"name":"Muncar","address":"9 Haas Hill","lng":114.3103718,"lat":-8.4480167},
{"id":545,"name":"Old City","address":"51 Schmedeman Drive","lng":35.2324593,"lat":31.7776563},
{"id":546,"name":"Dong’an","address":"41849 Dahle Road","lng":111.314117,"lat":26.394403},
{"id":547,"name":"Sollebrunn","address":"0 Cordelia Circle","lng":12.6443729,"lat":58.1214207},
{"id":548,"name":"Charlton","address":"97 Colorado Drive","lng":-1.407848,"lat":51.59119},
{"id":549,"name":"Ekenäs","address":"13818 Bluestem Point","lng":23.6314746,"lat":60.0528555},
{"id":550,"name":"Fengping","address":"403 Bashford Plaza","lng":111.793796,"lat":27.632803},
{"id":551,"name":"Wenshang","address":"5213 Hudson Point","lng":116.489043,"lat":35.732798},
{"id":552,"name":"Kazaure","address":"958 Florence Point","lng":8.4120775,"lat":12.6532933},
{"id":553,"name":"Bambanglipuro","address":"75088 Armistice Court","lng":110.3130087,"lat":-7.9481229},
{"id":554,"name":"Duwe","address":"0 Shoshone Trail","lng":98.8076849,"lat":3.60783},
{"id":555,"name":"Stockholm","address":"587 Hooker Avenue","lng":18.0494344,"lat":59.3416126},
{"id":556,"name":"Zoumaling","address":"9 Acker Court","lng":115.429626,"lat":30.203152},
{"id":557,"name":"Banī Ḩassān","address":"668 Eagle Crest Center","lng":10.8084675,"lat":35.5673752},
{"id":558,"name":"Al Manşūrah","address":"82351 Fair Oaks Drive","lng":31.3784704,"lat":31.0409483},
{"id":559,"name":"Gawul","address":"4 Dakota Drive","lng":106.6825417,"lat":-6.3474028},
{"id":560,"name":"Haitang","address":"55447 Utah Hill","lng":109.752583,"lat":18.400092},
{"id":561,"name":"Jeffersonville","address":"57589 Pearson Avenue","lng":-85.7,"lat":38.34},
{"id":562,"name":"Changhao","address":"5 Cody Road","lng":121.4737021,"lat":31.2303904},
{"id":563,"name":"Wielgie","address":"6239 Garrison Way","lng":19.2533342,"lat":52.7489266},
{"id":564,"name":"Urrô","address":"3024 Hooker Point","lng":-8.330057,"lat":41.1897615},
{"id":565,"name":"San Miguel","address":"87 Dryden Drive","lng":-99.0806088,"lat":19.3579802},
{"id":566,"name":"Ngromo","address":"9542 Butternut Parkway","lng":111.207,"lat":-7.9531596},
{"id":567,"name":"Mirsíni","address":"55 Pond Point","lng":21.2374124,"lat":37.9209684},
{"id":568,"name":"Ban Nong Wua So","address":"02 American Point","lng":102.5704008,"lat":17.1782591},
{"id":569,"name":"Linköping","address":"179 Oxford Avenue","lng":15.69159,"lat":58.3970814},
{"id":570,"name":"Velké Losiny","address":"71 Green Parkway","lng":17.0405873,"lat":50.03197},
{"id":571,"name":"Mŭglizh","address":"17 Prentice Terrace","lng":"25.55","lat":"42.6"},
{"id":572,"name":"Chengbei","address":"62701 Doe Crossing Parkway","lng":101.766228,"lat":36.650038},
{"id":573,"name":"Jequié","address":"37448 Shoshone Plaza","lng":-40.0837763,"lat":-13.8590592},
{"id":574,"name":"Yonghe","address":"6528 Starling Circle","lng":110.632006,"lat":36.759507},
{"id":575,"name":"Al Qārah","address":"94807 Quincy Circle","lng":49.679652,"lat":25.415248},
{"id":576,"name":"Metapán","address":"5781 Kensington Court","lng":-89.4505802,"lat":14.326195},
{"id":577,"name":"Várzea","address":"48 Briar Crest Alley","lng":-8.5747445,"lat":41.5193418},
{"id":578,"name":"Ḩukūmat-e Shīnkaī","address":"8554 Vera Street","lng":"67.33558","lat":"31.98303"},
{"id":579,"name":"Thị Trấn Tân Yên","address":"72 Oak Valley Street","lng":106.0875326,"lat":21.3785203},
{"id":580,"name":"Santa Lucia","address":"0 Nevada Way","lng":120.4557309,"lat":17.1056791},
{"id":581,"name":"Kovářská","address":"9 Kim Drive","lng":13.0716999,"lat":50.4322664},
{"id":582,"name":"Huangxi","address":"08934 Hanson Court","lng":108.8076195,"lat":23.7247599},
{"id":583,"name":"Guatimozín","address":"502 Nobel Plaza","lng":-65.2844271,"lat":-24.1955744},
{"id":584,"name":"Famaillá","address":"30609 Grasskamp Pass","lng":-58.4985279,"lat":-34.5903044},
{"id":585,"name":"Ajaccio","address":"2 Nancy Road","lng":0.813275,"lat":46.6473105},
{"id":586,"name":"Chuarrancho","address":"880 Carey Avenue","lng":-90.5131461,"lat":14.8190224},
{"id":587,"name":"Yasenevo","address":"05 School Hill","lng":37.5321289,"lat":55.600738},
{"id":588,"name":"Villeneuve-d'Ascq","address":"23218 Mifflin Street","lng":3.1244315,"lat":50.6140977},
{"id":589,"name":"Atalhada","address":"74 Lake View Parkway","lng":-25.5823865,"lat":37.7451853},
{"id":590,"name":"Moshkovo","address":"483 Judy Street","lng":83.6056675,"lat":55.3040194},
{"id":591,"name":"Legionowo","address":"58 Shopko Crossing","lng":20.9258628,"lat":52.4198041},
{"id":592,"name":"Aksha","address":"6 Mariners Cove Drive","lng":113.2766861,"lat":50.2850778},
{"id":593,"name":"Takefu","address":"4 Luster Park","lng":139.5044784,"lat":35.5380685},
{"id":594,"name":"Wādī as Sīr","address":"7731 Homewood Junction","lng":35.8472427,"lat":31.9566347},
{"id":595,"name":"La Vega","address":"510 Algoma Hill","lng":-74.339439,"lat":5.000528},
{"id":596,"name":"Cockburn Town","address":"996 Mifflin Avenue","lng":-71.1389101,"lat":21.4674584},
{"id":597,"name":"Malanów","address":"9277 Derek Avenue","lng":18.3741855,"lat":51.9560413},
{"id":598,"name":"Koror","address":"97 Saint Paul Crossing","lng":134.4771596,"lat":7.3410628},
{"id":599,"name":"Lanhe","address":"1 Golf Circle","lng":113.343022,"lat":22.838345},
{"id":600,"name":"Huelkail","address":"7 Shoshone Way","lng":"124.0019","lat":"-9.6239"},
{"id":601,"name":"Zhenjiang","address":"31 Clarendon Drive","lng":119.425836,"lat":32.187849},
{"id":602,"name":"Thị Trấn Mường Khương","address":"1624 Quincy Way","lng":104.1059408,"lat":22.7675252},
{"id":603,"name":"Xiaozhi","address":"33 Eagan Road","lng":116.454574,"lat":36.112722},
{"id":604,"name":"Huaylillas","address":"5827 Havey Hill","lng":-77.319061,"lat":-8.189186},
{"id":605,"name":"Arnprior","address":"6 Marquette Hill","lng":-76.3609305,"lat":45.4331407},
{"id":606,"name":"Jingmao","address":"78173 Vera Crossing","lng":99.679493,"lat":22.493937},
{"id":607,"name":"Liangcunchang","address":"00732 Gale Avenue","lng":102.2581459,"lat":27.870166},
{"id":608,"name":"Sepanjang","address":"381 Washington Drive","lng":112.7077638,"lat":-7.340531},
{"id":609,"name":"Olds","address":"3375 Charing Cross Way","lng":-114.105279,"lat":51.7920135},
{"id":610,"name":"San Cristóbal","address":"15835 Cardinal Street","lng":-70.4079274,"lat":18.932625},
{"id":611,"name":"Pogonsili","address":"63 Sugar Circle","lng":120.2604675,"lat":15.8229771},
{"id":612,"name":"Maisons-Alfort","address":"2 Barby Alley","lng":2.4347009,"lat":48.8039832},
{"id":613,"name":"Alexandroúpoli","address":"1 Portage Parkway","lng":25.873962,"lat":40.8457193},
{"id":614,"name":"Barra do Bugres","address":"22709 Southridge Lane","lng":-57.1882847,"lat":-15.0705872},
{"id":615,"name":"Bowang","address":"9718 Oxford Plaza","lng":118.844538,"lat":31.558471},
{"id":616,"name":"Bayt Ta‘mar","address":"77860 Transport Avenue","lng":35.241822,"lat":31.678719},
{"id":617,"name":"Petrodvorets","address":"42 Dennis Center","lng":29.9105627,"lat":59.8794468},
{"id":618,"name":"Kharabali","address":"15539 Buell Terrace","lng":47.254337,"lat":47.4060859},
{"id":619,"name":"Orléans","address":"1510 Becker Terrace","lng":2.8002946,"lat":47.3591366},
{"id":620,"name":"Tsyurupyns’k","address":"64103 Holy Cross Court","lng":32.7072675,"lat":46.6199321},
{"id":621,"name":"Atsipópoulon","address":"9028 Carpenter Junction","lng":24.4345055,"lat":35.3527256},
{"id":622,"name":"Daru","address":"11860 Fairview Junction","lng":-10.8479688,"lat":7.9877141},
{"id":623,"name":"Nanqiu","address":"820 Ronald Regan Drive","lng":119.218978,"lat":36.478493},
{"id":624,"name":"Cernik","address":"17 Anderson Point","lng":14.5032137,"lat":45.3481651},
{"id":625,"name":"Chengxi","address":"06 East Plaza","lng":101.765843,"lat":36.628305},
{"id":626,"name":"Zheleznovodsk","address":"538 Golf Center","lng":43.1007634,"lat":44.0854864},
{"id":627,"name":"Horki","address":"5520 Waywood Terrace","lng":30.990449,"lat":54.2825201},
{"id":628,"name":"Telengsari","address":"45 Weeping Birch Junction","lng":"113.6917","lat":"-8.1814"},
{"id":629,"name":"Yutan","address":"72 Forest Dale Road","lng":-96.3966046,"lat":41.244729},
{"id":630,"name":"Trpinja","address":"0801 Grasskamp Plaza","lng":18.8903084,"lat":45.4447185},
{"id":631,"name":"Lisala","address":"13 Buhler Avenue","lng":21.4872092,"lat":2.1701072},
{"id":632,"name":"Lincheng","address":"28663 Dryden Circle","lng":114.498761,"lat":37.444498},
{"id":633,"name":"Beit Jann","address":"84 Waxwing Center","lng":35.381268,"lat":32.965655},
{"id":634,"name":"Prachuap Khiri Khan","address":"2 Comanche Circle","lng":99.8571416,"lat":12.3958358},
{"id":635,"name":"Kisovec","address":"1 Armistice Way","lng":14.9617162,"lat":46.1399991},
{"id":636,"name":"Longjing","address":"07 Dapin Center","lng":129.427066,"lat":42.76631},
{"id":637,"name":"Boston","address":"0 Fieldstone Street","lng":-81.138279,"lat":35.9015016},
{"id":638,"name":"Shuihu","address":"3 Luster Terrace","lng":117.16587,"lat":32.477849},
{"id":639,"name":"Amsterdam Nieuw West","address":"2 Pleasure Drive","lng":4.7901227,"lat":52.3576375},
{"id":640,"name":"Dongning","address":"8328 7th Trail","lng":131.122915,"lat":44.087585},
{"id":641,"name":"Arras","address":"412 Armistice Park","lng":20.3241791,"lat":41.7371087},
{"id":642,"name":"Durham","address":"6 Cascade Court","lng":-78.9,"lat":35.99},
{"id":643,"name":"Sutukoba","address":"22 Waxwing Court","lng":-14.0144902,"lat":13.5001159},
{"id":644,"name":"Paris La Défense","address":"0978 Moulton Center","lng":2.2372792,"lat":48.890054},
{"id":645,"name":"Patnongon","address":"12376 Lyons Junction","lng":121.9864492,"lat":10.9322366},
{"id":646,"name":"Cipaku","address":"9 Summerview Court","lng":107.7843483,"lat":-7.0631844},
{"id":647,"name":"Gweru","address":"71 Old Gate Junction","lng":29.8120795,"lat":-19.468531},
{"id":648,"name":"Chumphon Buri","address":"1274 Service Alley","lng":104.1478667,"lat":15.787156},
{"id":649,"name":"Isesaki","address":"1 Fair Oaks Junction","lng":139.9802454,"lat":36.4257359},
{"id":650,"name":"Uppsala","address":"4477 Pawling Trail","lng":17.6754261,"lat":59.8079805},
{"id":651,"name":"Skinnskatteberg","address":"9 Clyde Gallagher Street","lng":15.6905435,"lat":59.83453},
{"id":652,"name":"Santo Tomás","address":"0 Parkside Parkway","lng":-85.0908671,"lat":12.0687},
{"id":653,"name":"Jinjing","address":"75082 Tennyson Hill","lng":118.552365,"lat":24.781681},
{"id":654,"name":"Murcia","address":"1476 Hoffman Plaza","lng":123.0143845,"lat":10.554131},
{"id":655,"name":"Próti","address":"17280 Little Fleur Pass","lng":21.39509,"lat":40.8153071},
{"id":656,"name":"Växjö","address":"819 Bay Avenue","lng":14.8058523,"lat":56.8790044},
{"id":657,"name":"Makrýgialos","address":"1 Buena Vista Junction","lng":22.6037501,"lat":40.4159844},
{"id":658,"name":"Laguna Limpia","address":"87 Leroy Street","lng":-58.7426968,"lat":-27.581232},
{"id":659,"name":"Kuala Lumpur","address":"83 Red Cloud Crossing","lng":101.7178316,"lat":3.1523104},
{"id":660,"name":"Miyoshi","address":"86 Bultman Street","lng":139.9049319,"lat":37.6251173},
{"id":661,"name":"Hermoso Campo","address":"03 Vernon Road","lng":-64.4833187,"lat":-31.0767358},
{"id":662,"name":"Ngulangan","address":"5 Debs Way","lng":111.4886997,"lat":-6.7160998},
{"id":663,"name":"Meget","address":"5126 Eggendart Road","lng":104.0456397,"lat":52.4242797},
{"id":664,"name":"Fukui-shi","address":"738 Elmside Drive","lng":136.1682227,"lat":36.1473783},
{"id":665,"name":"Málaga","address":"5766 Vahlen Place","lng":-72.7628653,"lat":6.6763591},
{"id":666,"name":"Mora","address":"02737 Mesta Point","lng":14.6053692,"lat":61.0180334},
{"id":667,"name":"Jiangwei","address":"161 Butternut Terrace","lng":114.1114725,"lat":22.5397224},
{"id":668,"name":"Chama","address":"23 Mendota Hill","lng":33.1604555,"lat":-11.2166885},
{"id":669,"name":"Xunqiao","address":"8721 Maywood Trail","lng":121.315718,"lat":31.058765},
{"id":670,"name":"Jinyuan","address":"49030 Memorial Hill","lng":112.47794,"lat":37.715193},
{"id":671,"name":"Slobodskoy","address":"95140 Towne Plaza","lng":50.1704702,"lat":58.7103464},
{"id":672,"name":"Cotia","address":"49229 Armistice Hill","lng":-46.9465138,"lat":-23.6126976},
{"id":673,"name":"Bluri","address":"20750 Schlimgen Park","lng":112.4202058,"lat":-6.9140922},
{"id":674,"name":"Březová nad Svitavou","address":"2 Nelson Street","lng":16.5117461,"lat":49.6542555},
{"id":675,"name":"Binalbagan","address":"44 Nova Circle","lng":122.911283,"lat":10.2019084},
{"id":676,"name":"Gampengrejo","address":"90271 Atwood Pass","lng":112.029752,"lat":-7.7556135},
{"id":677,"name":"Opechenskiy Posad","address":"1520 Havey Center","lng":34.1125526,"lat":58.2760382},
{"id":678,"name":"Limoges","address":"4249 Warrior Junction","lng":3.5276642,"lat":45.521519},
{"id":679,"name":"Jaworzynka","address":"3 Mayfield Crossing","lng":18.8708641,"lat":49.5395711},
{"id":680,"name":"Sorongan","address":"6 Welch Trail","lng":105.7527221,"lat":-6.7513288},
{"id":681,"name":"Gaohe","address":"3 Coleman Circle","lng":113.01869,"lat":36.145932},
{"id":682,"name":"Hedao","address":"3 Barby Crossing","lng":112.9889132,"lat":28.1459758},
{"id":683,"name":"Ḩāfiz̧ Moghul","address":"42873 Granby Center","lng":"70.40061","lat":"37.05643"},
{"id":684,"name":"Grängesberg","address":"441 Vahlen Circle","lng":15.0050581,"lat":60.0715764},
{"id":685,"name":"Krajan Winong","address":"4 Judy Point","lng":111.4253892,"lat":-7.9110809},
{"id":686,"name":"Krajan","address":"94691 Springview Hill","lng":111.6556388,"lat":-7.5450262},
{"id":687,"name":"Anh Son","address":"2298 Stoughton Terrace","lng":105.0557415,"lat":18.9688054},
{"id":688,"name":"Jasienica","address":"57 Manitowish Circle","lng":18.9439837,"lat":49.8376215},
{"id":689,"name":"Banī Zayd","address":"35271 Arapahoe Park","lng":35.125431,"lat":32.052539},
{"id":690,"name":"Banjar Budakeling","address":"998 Sycamore Avenue","lng":114.9671388,"lat":-8.2104974},
{"id":691,"name":"Prior Velho","address":"91 Blackbird Lane","lng":-9.1194989,"lat":38.7908786},
{"id":692,"name":"Stockholm","address":"5138 Boyd Park","lng":-68.1430029,"lat":47.0163969},
{"id":693,"name":"Lugang","address":"77665 8th Road","lng":121.498955,"lat":31.2371338},
{"id":694,"name":"Kushiro","address":"8 Jackson Center","lng":133.2811579,"lat":34.8663135},
{"id":695,"name":"Shiqiao","address":"6 Forest Run Parkway","lng":113.366904,"lat":22.948016},
{"id":696,"name":"Ismailia","address":"71047 Morningstar Pass","lng":32.2714587,"lat":30.5964923},
{"id":697,"name":"Tarnowskie Góry","address":"97 Lerdahl Circle","lng":18.7351846,"lat":50.4808616},
{"id":698,"name":"H̱olon","address":"8838 Stoughton Street","lng":34.787384,"lat":32.015833},
{"id":699,"name":"Launceston","address":"9 Ronald Regan Court","lng":147.1440875,"lat":-41.4332215},
{"id":700,"name":"Nova Odesa","address":"1 Schurz Junction","lng":31.7883933,"lat":47.309181},
{"id":701,"name":"Vista Alegre","address":"50 Heffernan Parkway","lng":-8.6825151,"lat":40.5884067},
{"id":702,"name":"Tulungrejo","address":"66328 Gerald Circle","lng":112.1877315,"lat":-7.7546695},
{"id":703,"name":"Plataran","address":"85587 Lindbergh Place","lng":110.190865,"lat":-7.606418},
{"id":704,"name":"Valencia","address":"03 Briar Crest Terrace","lng":-0.3979657,"lat":39.4798873},
{"id":705,"name":"Nizhnedevitsk","address":"77234 Swallow Plaza","lng":38.3515833,"lat":51.5399865},
{"id":706,"name":"Hägersten","address":"54608 8th Junction","lng":17.9928445,"lat":59.2873947},
{"id":707,"name":"Novopodrezkovo","address":"8874 Onsgard Pass","lng":37.3473833,"lat":55.9424359},
{"id":708,"name":"Baloc","address":"29152 Welch Crossing","lng":120.8898149,"lat":15.6432256},
{"id":709,"name":"Orangeville","address":"97916 Ramsey Parkway","lng":"-80.09967","lat":"43.9168"},
{"id":710,"name":"Dawuhan","address":"47198 Gateway Drive","lng":109.2638245,"lat":-7.5201771},
{"id":711,"name":"Almada","address":"91222 Swallow Parkway","lng":-9.1534942,"lat":38.6816201},
{"id":712,"name":"Saint Paul","address":"02674 Corben Junction","lng":-93.1277854,"lat":44.7984858},
{"id":713,"name":"Nässjö","address":"72 Merrick Circle","lng":14.7061761,"lat":57.6624125},
{"id":714,"name":"Jubao","address":"1 Merchant Avenue","lng":113.2694916,"lat":23.1216171},
{"id":715,"name":"Vinkkilä","address":"758 Division Street","lng":"21.71667","lat":"60.68333"},
{"id":716,"name":"Rinconada","address":"515 Caliangt Road","lng":-65.2994788,"lat":-24.1973637},
{"id":717,"name":"Talalayivka","address":"153 Rowland Pass","lng":33.1399988,"lat":50.8424855},
{"id":718,"name":"Semanding Barat","address":"977 Warrior Alley","lng":112.054703,"lat":-6.921715},
{"id":719,"name":"Dashiqiao","address":"6 Aberg Park","lng":122.509131,"lat":40.644621},
{"id":720,"name":"Yershov","address":"54 Dennis Trail","lng":37.7783839,"lat":55.747854},
{"id":721,"name":"Świnice Warckie","address":"27 Moose Lane","lng":18.9179279,"lat":52.0408964},
{"id":722,"name":"Strasbourg","address":"17 Ryan Point","lng":7.7342943,"lat":48.5851876},
{"id":723,"name":"Berlin","address":"93 Ryan Way","lng":13.3304798,"lat":52.4837296},
{"id":724,"name":"Haymā’","address":"75667 Rieder Junction","lng":56.268059,"lat":19.955811},
{"id":725,"name":"Libertador General San Martín","address":"9 Towne Trail","lng":-55.9209672,"lat":-27.3987162},
{"id":726,"name":"San Diego","address":"62 Columbus Terrace","lng":-83.9977527,"lat":9.9010414},
{"id":727,"name":"Huangzhawan","address":"8990 Nova Way","lng":97.06483,"lat":40.385837},
{"id":728,"name":"Durham","address":"55670 Huxley Terrace","lng":-78.9,"lat":35.99},
{"id":729,"name":"Cuevas","address":"4894 Blackbird Pass","lng":120.9946341,"lat":14.5823299},
{"id":730,"name":"Kyshtym","address":"09794 Scofield Terrace","lng":60.538576,"lat":55.7359757},
{"id":731,"name":"Espinosa","address":"6934 Cascade Way","lng":-43.0971625,"lat":-14.7710261},
{"id":732,"name":"Pavino","address":"61009 Wayridge Circle","lng":46.1539577,"lat":59.1107233},
{"id":733,"name":"Shedok","address":"215 Reinke Circle","lng":40.8422117,"lat":44.2167852},
{"id":734,"name":"Shymkent","address":"9 Dixon Way","lng":69.590101,"lat":42.3416847},
{"id":735,"name":"Memphis","address":"3 Mcbride Trail","lng":-90.05,"lat":35.15},
{"id":736,"name":"Manevychi","address":"81338 Ilene Plaza","lng":25.5612826,"lat":51.2906483},
{"id":737,"name":"Xiejiatan","address":"10395 Moland Park","lng":116.726929,"lat":29.482508},
{"id":738,"name":"Réo","address":"56332 Sachtjen Trail","lng":-2.4653598,"lat":12.3181444},
{"id":739,"name":"Panguna","address":"97 Swallow Terrace","lng":155.477221,"lat":-6.308009},
{"id":740,"name":"Cantuk Kidul","address":"12 Sachs Way","lng":114.2301337,"lat":-8.2986261},
{"id":741,"name":"Kaliterus","address":"866 Oriole Center","lng":109.5766953,"lat":-7.6044275},
{"id":742,"name":"Cumadcad","address":"31 Artisan Pass","lng":123.7830057,"lat":12.9785941},
{"id":743,"name":"Luleå","address":"166 Havey Park","lng":22.168271,"lat":65.5921449},
{"id":744,"name":"Lameiro","address":"0 Gale Drive","lng":-8.9052093,"lat":39.8575426},
{"id":745,"name":"Pirapora","address":"75 Mcguire Alley","lng":-44.9449465,"lat":-17.3410721},
{"id":746,"name":"Coquitlam","address":"27 Mayfield Hill","lng":-122.7535881,"lat":49.2815819},
{"id":747,"name":"Uhlove","address":"10601 Walton Street","lng":33.6035054,"lat":44.8205124},
{"id":748,"name":"Xo’jayli Shahri","address":"62357 School Way","lng":59.6251488,"lat":42.4371884},
{"id":749,"name":"Bakıxanov","address":"49 Hermina Way","lng":49.950331,"lat":40.4249808},
{"id":750,"name":"Guri-si","address":"5403 Grasskamp Street","lng":127.1295646,"lat":37.5943124},
{"id":751,"name":"Wuppertal","address":"5 Jenifer Park","lng":7.1301012,"lat":51.2034374},
{"id":752,"name":"Kutao","address":"74 Hauk Terrace","lng":120.4873619,"lat":36.1460832},
{"id":753,"name":"Portariá","address":"80 Porter Place","lng":22.9982253,"lat":39.3897164},
{"id":754,"name":"Dubai","address":"22275 Londonderry Road","lng":55.2707828,"lat":25.2048493},
{"id":755,"name":"Sagud-Bahley","address":"04 Bashford Junction","lng":120.3969759,"lat":16.1218015},
{"id":756,"name":"Shahe","address":"55 Bartillon Center","lng":114.503339,"lat":36.854929},
{"id":757,"name":"Boli","address":"7789 High Crossing Drive","lng":130.5921699,"lat":45.755062},
{"id":758,"name":"Atbasar","address":"18 Westridge Center","lng":68.3636926,"lat":51.8204945},
{"id":759,"name":"Champagnole","address":"7178 Sugar Drive","lng":5.9081968,"lat":46.7457125},
{"id":760,"name":"Krasnyy Klyuch","address":"92283 Charing Cross Court","lng":55.5580718,"lat":55.3964659},
{"id":761,"name":"Xingou","address":"051 Dottie Drive","lng":114.720925,"lat":30.352134},
{"id":762,"name":"Carot","address":"32 Eastlawn Street","lng":119.90559,"lat":16.289185},
{"id":763,"name":"Novoaleksandrovsk","address":"4 Milwaukee Trail","lng":41.1600688,"lat":45.4885295},
{"id":764,"name":"Qinhong","address":"330 Hermina Crossing","lng":117.2438579,"lat":34.3264348},
{"id":765,"name":"Lairoka","address":"99803 Clarendon Alley","lng":"120.4871","lat":"-9.9104"},
{"id":766,"name":"Žebrák","address":"2781 Burrows Parkway","lng":14.2493409,"lat":49.704085},
{"id":767,"name":"Shar’ya","address":"8294 Duke Lane","lng":45.5416034,"lat":58.3669548},
{"id":768,"name":"Raga","address":"78203 Pleasure Alley","lng":25.6805868,"lat":8.4611612},
{"id":769,"name":"Kněžpole","address":"714 Jana Park","lng":17.3111016,"lat":49.8599769},
{"id":770,"name":"Straldzha","address":"8339 Troy Crossing","lng":26.6831949,"lat":42.5387912},
{"id":771,"name":"Landvetter","address":"56 Stoughton Way","lng":12.2116683,"lat":57.6866936},
{"id":772,"name":"Nong Bun Nak","address":"63599 Scott Way","lng":102.368115,"lat":14.740841},
{"id":773,"name":"Chezhan","address":"219 Dahle Center","lng":113.3848198,"lat":23.1186718},
{"id":774,"name":"Kochevo","address":"470 Raven Park","lng":54.3310196,"lat":59.6185698},
{"id":775,"name":"Jermenovci","address":"621 Sycamore Circle","lng":21.0119834,"lat":45.2011955},
{"id":776,"name":"Las Palmas","address":"895 School Pass","lng":-95.8162299,"lat":17.8281158},
{"id":777,"name":"General Belgrano","address":"71227 La Follette Way","lng":-58.187517,"lat":-34.8234058},
{"id":778,"name":"Caldas da Rainha","address":"10675 Valley Edge Road","lng":-9.135404,"lat":39.4048977},
{"id":779,"name":"Karanganyar","address":"50 Oak Center","lng":111.0460407,"lat":-7.6387228},
{"id":780,"name":"San Pablo","address":"3147 Waubesa Avenue","lng":-78.8226909,"lat":-7.1143481},
{"id":781,"name":"Paraty","address":"7 Randy Road","lng":-44.7235076,"lat":-23.2218772},
{"id":782,"name":"Chunjing","address":"497 Sutherland Hill","lng":109.590771,"lat":22.191899},
{"id":783,"name":"Horvati","address":"11 Loeprich Drive","lng":15.8074521,"lat":45.7123346},
{"id":784,"name":"Muqi","address":"04873 Fulton Circle","lng":121.445448,"lat":31.213534},
{"id":785,"name":"Cloyne","address":"26 Rockefeller Road","lng":-6.2398782,"lat":53.32112},
{"id":786,"name":"Hengtanggang","address":"73 Texas Trail","lng":116.513899,"lat":31.535184},
{"id":787,"name":"Gunjur Kuta","address":"94721 Vahlen Plaza","lng":-14.1102971,"lat":13.5313606},
{"id":788,"name":"Jeberos","address":"5 Longview Avenue","lng":-76.283333,"lat":-5.283333},
{"id":789,"name":"Bairan","address":"1 Esker Place","lng":123.7192022,"lat":10.1985612},
{"id":790,"name":"Mrozy","address":"26877 Jana Way","lng":21.828508,"lat":52.1379258},
{"id":791,"name":"Kayan","address":"269 Dakota Terrace","lng":96.5623251,"lat":16.9075213},
{"id":792,"name":"Padangtepung","address":"2 Basil Lane","lng":102.7942473,"lat":-3.7580937},
{"id":793,"name":"Prakhon Chai","address":"3 Main Point","lng":103.0933171,"lat":14.6014909},
{"id":794,"name":"Gaurnadi","address":"872 Kipling Crossing","lng":90.1838976,"lat":22.9627499},
{"id":795,"name":"San Miguel","address":"4 Sundown Court","lng":126.009711,"lat":8.955271},
{"id":796,"name":"Luohe","address":"852 Park Meadow Lane","lng":114.016536,"lat":33.580873},
{"id":797,"name":"Gjoa Haven","address":"07 Clove Crossing","lng":"-95.87836","lat":"68.62602"},
{"id":798,"name":"San Juan","address":"2 Ridge Oak Place","lng":-99.1850598,"lat":19.3785056},
{"id":799,"name":"Dnestrovsc","address":"3435 Valley Edge Park","lng":"29.91333","lat":"46.62222"},
{"id":800,"name":"Nihommatsu","address":"3324 Garrison Trail","lng":140.4902763,"lat":37.6214616},
{"id":801,"name":"Zhongshan","address":"8991 David Avenue","lng":113.39277,"lat":22.517585},
{"id":802,"name":"Bongued","address":"3 Hermina Court","lng":"124.4","lat":"7.11667"},
{"id":803,"name":"Anju","address":"0238 Farragut Alley","lng":105.456342,"lat":30.355379},
{"id":804,"name":"Yunlu","address":"77071 Hayes Terrace","lng":116.468928,"lat":23.583208},
{"id":805,"name":"Pompano Beach","address":"542 Northland Point","lng":-80.109357,"lat":26.2778269},
{"id":806,"name":"Banbalah","address":"11 Delaware Junction","lng":"10.8","lat":"35.7"},
{"id":807,"name":"Chum Phuang","address":"32 Lakewood Gardens Road","lng":102.8514837,"lat":15.2679414},
{"id":808,"name":"Kimberley","address":"00 Becker Crossing","lng":-115.9220734,"lat":49.6885534},
{"id":809,"name":"Lagangilang","address":"81 Lakeland Court","lng":120.6085163,"lat":17.460265},
{"id":810,"name":"Palaiseau","address":"87810 Moose Crossing","lng":2.2186743,"lat":48.7057309},
{"id":811,"name":"Taunggyi","address":"76 Gina Lane","lng":97.0337141,"lat":20.7887571},
{"id":812,"name":"Novyye Gorki","address":"97 Prentice Junction","lng":41.0643386,"lat":56.7279731},
{"id":813,"name":"Wafang","address":"8 Ruskin Court","lng":119.161748,"lat":36.706962},
{"id":814,"name":"Lloydminster","address":"07274 Welch Plaza","lng":-109.9850454,"lat":53.2771781},
{"id":815,"name":"Tong’an","address":"8 Cody Junction","lng":118.152148,"lat":24.722747},
{"id":816,"name":"Hinunangan","address":"386 Tony Terrace","lng":125.213831,"lat":10.385548},
{"id":817,"name":"Heba","address":"6095 Sutteridge Junction","lng":112.646263,"lat":29.186335},
{"id":818,"name":"Wanglu Kulon","address":"0 Sutherland Junction","lng":111.7301652,"lat":-7.0219756},
{"id":819,"name":"Kananya","address":"77 Namekagon Alley","lng":"124.5601","lat":"11.1867"},
{"id":820,"name":"Lamak","address":"08600 Monument Road","lng":123.5393143,"lat":10.1219025},
{"id":821,"name":"Qijing","address":"51 Messerschmidt Plaza","lng":103.796167,"lat":25.489999},
{"id":822,"name":"Sanhe","address":"7347 Grover Junction","lng":117.078294,"lat":39.982718},
{"id":823,"name":"Dayuanhuizu","address":"57 Macpherson Circle","lng":105.238901,"lat":32.417346},
{"id":824,"name":"Medalem","address":"438 Del Mar Plaza","lng":112.6600907,"lat":-7.4742776},
{"id":825,"name":"Teplice","address":"5 Nancy Center","lng":13.835284,"lat":50.6444579},
{"id":826,"name":"Néa Flogitá","address":"3979 Manley Terrace","lng":23.2215193,"lat":40.2608574},
{"id":827,"name":"Huangli","address":"395 Dunning Point","lng":119.716535,"lat":31.637714},
{"id":828,"name":"Citeguh","address":"109 Helena Center","lng":107.9512504,"lat":-7.3360763},
{"id":829,"name":"Profítis Ilías","address":"41 Lindbergh Pass","lng":25.4633333,"lat":36.3688889},
{"id":830,"name":"Butterworth","address":"465 Algoma Drive","lng":100.4115631,"lat":5.4552197},
{"id":831,"name":"Riolândia","address":"728 Hallows Terrace","lng":-49.7319925,"lat":-20.015942},
{"id":832,"name":"Yanghe","address":"94296 Barnett Trail","lng":110.70434,"lat":29.26008},
{"id":833,"name":"Bira","address":"3798 Fuller Park","lng":132.4671327,"lat":49.0026196},
{"id":834,"name":"Lào Cai","address":"8584 Randy Terrace","lng":104.1487055,"lat":22.3380865},
{"id":835,"name":"Port Antonio","address":"65822 Johnson Circle","lng":-76.4476321,"lat":18.1712764},
{"id":836,"name":"Bodzanów","address":"985 Pawling Road","lng":20.01446,"lat":52.4957047},
{"id":837,"name":"Biharamulo","address":"77301 Gateway Point","lng":31.3141291,"lat":-2.6343036},
{"id":838,"name":"Montpellier","address":"752 Evergreen Junction","lng":-0.8453268,"lat":47.3752386},
{"id":839,"name":"Khŭjand","address":"52 Messerschmidt Road","lng":69.6452877,"lat":40.2675155},
{"id":840,"name":"Turtas","address":"71717 Division Hill","lng":69.1475573,"lat":58.935714},
{"id":841,"name":"Aitape","address":"2 Pine View Hill","lng":142.3639991,"lat":-3.1538273},
{"id":842,"name":"Carodok","address":"07677 Derek Pass","lng":"105.8508","lat":"-6.5823"},
{"id":843,"name":"Amieira","address":"6987 Lakewood Parkway","lng":-8.6239676,"lat":41.1848533},
{"id":844,"name":"Perstorp","address":"40255 Karstens Drive","lng":13.4016403,"lat":56.1389673},
{"id":845,"name":"Koronganayam","address":"24366 Monument Alley","lng":106.9222137,"lat":-6.2969238},
{"id":846,"name":"Ambon","address":"405 Russell Drive","lng":128.1907723,"lat":-3.6553932},
{"id":847,"name":"Ciego de Ávila","address":"424 Meadow Ridge Junction","lng":-78.7589558,"lat":21.8405365},
{"id":848,"name":"Demerval Lobão","address":"50 Eagle Crest Point","lng":-42.6880552,"lat":-5.3375891},
{"id":849,"name":"Tetovo","address":"54 Dexter Point","lng":20.9713986,"lat":42.009313},
{"id":850,"name":"Belozërsk","address":"877 Northfield Center","lng":37.8057169,"lat":60.0298805},
{"id":851,"name":"Beijiang","address":"0472 Washington Street","lng":113.1916737,"lat":23.9563274},
{"id":852,"name":"Daxi","address":"2 Lake View Point","lng":121.2969674,"lat":24.8658422},
{"id":853,"name":"Jianxincun","address":"410 Hoepker Alley","lng":115.998308,"lat":28.915807},
{"id":854,"name":"Ananindeua","address":"58 Hoepker Alley","lng":-48.3854399,"lat":-1.371775},
{"id":855,"name":"Hesheng","address":"79 Scott Circle","lng":118.489851,"lat":24.724853},
{"id":856,"name":"Ti-n-Essako","address":"0393 Sunfield Point","lng":2.49,"lat":18.44},
{"id":857,"name":"Bemposta","address":"556 Crownhardt Junction","lng":-8.4685789,"lat":41.7973754},
{"id":858,"name":"Velká nad Veličkou","address":"2076 Lake View Pass","lng":17.5206059,"lat":48.8825673},
{"id":859,"name":"Dadu","address":"89120 Maryland Pass","lng":67.786348,"lat":26.732065},
{"id":860,"name":"Jomboy","address":"0 Maywood Junction","lng":67.1060353,"lat":39.7032415},
{"id":861,"name":"Resplendor","address":"409 Algoma Park","lng":-41.1602597,"lat":-19.2277915},
{"id":862,"name":"Jatobá","address":"95 Cambridge Plaza","lng":-38.2110938,"lat":-9.1930089},
{"id":863,"name":"Pontalina","address":"17 Merrick Hill","lng":-49.5687416,"lat":-17.5582645},
{"id":864,"name":"Чучер - Сандево","address":"94 Michigan Point","lng":21.4177608,"lat":42.1087161},
{"id":865,"name":"Fort Smith","address":"74452 Fremont Junction","lng":-94.4313928,"lat":35.3756077},
{"id":866,"name":"Psyzh","address":"77 Gateway Court","lng":42.0384264,"lat":44.2220765},
{"id":867,"name":"Ustrzyki Dolne","address":"8292 Mallard Drive","lng":22.5942366,"lat":49.4303242},
{"id":868,"name":"Dawu Chengguanzhen","address":"23 Trailsway Pass","lng":114.121441,"lat":31.559966},
{"id":869,"name":"Aksu","address":"21 Sundown Center","lng":76.9262526,"lat":52.0404797},
{"id":870,"name":"Marks","address":"1454 Bay Way","lng":46.7484815,"lat":51.7106121},
{"id":871,"name":"Qinling Jieban","address":"928 Eastlawn Pass","lng":108.8682333,"lat":34.1777698},
{"id":872,"name":"Mataigou","address":"681 Wayridge Junction","lng":106.221144,"lat":34.6911},
{"id":873,"name":"Tisul’","address":"23862 Golf View Plaza","lng":88.6780253,"lat":56.0764809},
{"id":874,"name":"Venilale","address":"58794 Meadow Vale Hill","lng":126.3795987,"lat":-8.6417702},
{"id":875,"name":"Xinghuo","address":"72 Melody Plaza","lng":116.2398367,"lat":40.2023282},
{"id":876,"name":"Bergamo","address":"92 Stuart Pass","lng":9.6323203,"lat":45.7022525},
{"id":877,"name":"Kasli","address":"1 Darwin Pass","lng":60.7444752,"lat":55.889724},
{"id":878,"name":"Jablunkov","address":"2196 Larry Center","lng":18.7645942,"lat":49.5767154},
{"id":879,"name":"Toronto","address":"44455 Pond Pass","lng":-79.3894938,"lat":43.6623015},
{"id":880,"name":"Pedro Carbo","address":"85979 Mayfield Point","lng":-80.2377078,"lat":-1.8197455},
{"id":881,"name":"Al Qamşīyah","address":"061 Heffernan Circle","lng":35.9914384,"lat":35.0523717},
{"id":882,"name":"Belopa","address":"3963 Bobwhite Park","lng":120.3608455,"lat":-3.3939043},
{"id":883,"name":"Baisha","address":"0 Division Court","lng":100.222545,"lat":26.641315},
{"id":884,"name":"Tsybulevka","address":"22 Schlimgen Center","lng":29.1057554,"lat":47.4047584},
{"id":885,"name":"Hartswater","address":"58 Arkansas Circle","lng":24.8270745,"lat":-27.7557025},
{"id":886,"name":"Volokolamsk","address":"6736 Norway Maple Pass","lng":35.9510395,"lat":56.0349544},
{"id":887,"name":"San Vicente de Bique","address":"6135 Swallow Terrace","lng":-79.6754694,"lat":8.9155547},
{"id":888,"name":"Estaca","address":"08 Florence Avenue","lng":123.8565287,"lat":9.6625019},
{"id":889,"name":"Khemarat","address":"910 Atwood Pass","lng":105.1375908,"lat":16.0481202},
{"id":890,"name":"Langob","address":"3 Veith Court","lng":123.8822107,"lat":10.3307399},
{"id":891,"name":"Faīẕābād","address":"9297 Merchant Point","lng":70.5552362,"lat":37.1017088},
{"id":892,"name":"Castlebellingham","address":"95104 Russell Center","lng":-6.391149,"lat":53.8996586},
{"id":893,"name":"Nanggewer","address":"74990 Manitowish Parkway","lng":106.8325872,"lat":-6.5114699},
{"id":894,"name":"La Reforma","address":"259 Reinke Point","lng":-90.5158438,"lat":14.6050898},
{"id":895,"name":"Lagny-sur-Marne","address":"83 Ridgeview Center","lng":2.7104352,"lat":48.9097908},
{"id":896,"name":"Jindong","address":"764 Forster Parkway","lng":119.692696,"lat":29.099294},
{"id":897,"name":"Neftçala","address":"253 Fairfield Center","lng":49.2413743,"lat":39.3881052},
{"id":898,"name":"Amsterdam Oud Zuid en Rivierenbuurt","address":"58739 Briar Crest Parkway","lng":4.9091171,"lat":52.3444367},
{"id":899,"name":"Oibioin","address":"09039 Kinsman Parkway","lng":"123.8222","lat":"-10.2167"},
{"id":900,"name":"Guantian","address":"67783 4th Road","lng":114.762098,"lat":26.960479},
{"id":901,"name":"Bau","address":"8 Kingsford Court","lng":122.596901,"lat":-5.507078},
{"id":902,"name":"Adiwerna","address":"1 Algoma Hill","lng":109.1259181,"lat":-6.9391309},
{"id":903,"name":"Itoigawa","address":"95314 Mccormick Place","lng":137.9553704,"lat":36.9207067},
{"id":904,"name":"Qalandiyā","address":"93 Eagle Crest Court","lng":35.207914,"lat":31.861597},
{"id":905,"name":"Galtek","address":"7 Meadow Ridge Parkway","lng":"114.0294","lat":"-7.0728"},
{"id":906,"name":"Njeru","address":"5 Forest Run Junction","lng":33.1492106,"lat":0.4263679},
{"id":907,"name":"Cibitung","address":"55471 Hauk Way","lng":107.1071,"lat":-6.2335134},
{"id":908,"name":"Szydłowo","address":"752 Bobwhite Court","lng":16.6118082,"lat":53.1620102},
{"id":909,"name":"Jinfeng","address":"43 Linden Way","lng":106.239679,"lat":38.47436},
{"id":910,"name":"Tsu-shi","address":"57 Holmberg Junction","lng":136.3670325,"lat":34.668335},
{"id":911,"name":"Eyvān","address":"552 Spenser Plaza","lng":46.3073161,"lat":33.8297993},
{"id":912,"name":"Bunia","address":"86529 Luster Avenue","lng":30.2397336,"lat":1.574278},
{"id":913,"name":"Lat Yao","address":"00018 Bobwhite Junction","lng":99.7344154,"lat":15.7631488},
{"id":914,"name":"Ad Dīs ash Sharqīyah","address":"729 Prairieview Place","lng":"49.94778","lat":"14.90806"},
{"id":915,"name":"Ludza","address":"7924 Monterey Lane","lng":27.7143199,"lat":56.545959},
{"id":916,"name":"Little Baguio","address":"990 Cottonwood Crossing","lng":120.9873093,"lat":14.6760848},
{"id":917,"name":"Kenzhe","address":"1185 Buell Way","lng":43.5537167,"lat":43.4997666},
{"id":918,"name":"Ramos West","address":"900 Mcbride Drive","lng":121.672666,"lat":16.7054663},
{"id":919,"name":"Yishi","address":"2 Londonderry Junction","lng":113.29083,"lat":23.1350488},
{"id":920,"name":"Lingmen","address":"4 Sundown Circle","lng":-84.9047641,"lat":32.5571916},
{"id":921,"name":"Pocokan Satu","address":"79682 Lindbergh Street","lng":"112.8045","lat":"-6.9738"},
{"id":922,"name":"Moluo","address":"19 Sachs Road","lng":93.825006,"lat":28.924088},
{"id":923,"name":"Voyskovitsy","address":"865 Ohio Road","lng":29.9194439,"lat":59.538889},
{"id":924,"name":"Tucson","address":"50930 Kensington Court","lng":-110.8374104,"lat":32.2514545},
{"id":925,"name":"Jieshou","address":"2202 Ridgeview Terrace","lng":115.374821,"lat":33.258244},
{"id":926,"name":"Malhiao","address":"03698 Delladonna Plaza","lng":123.3996176,"lat":9.8769686},
{"id":927,"name":"Idah","address":"7936 Monica Place","lng":6.7440467,"lat":7.1138119},
{"id":928,"name":"San Agustin","address":"102 Eggendart Drive","lng":-78.7841007,"lat":-5.5944574},
{"id":929,"name":"Tumauini","address":"9 Scott Way","lng":121.834345,"lat":17.263531},
{"id":930,"name":"Al Bilād","address":"505 Northport Way","lng":47.195011,"lat":14.42099},
{"id":931,"name":"Ichinomiya","address":"4 Laurel Terrace","lng":137.8674573,"lat":37.0398003},
{"id":932,"name":"Pryamitsyno","address":"1 Trailsway Junction","lng":"35.9314","lat":"51.6561"},
{"id":933,"name":"Gordon Town","address":"1 Warner Avenue","lng":-76.7195828,"lat":18.0354673},
{"id":934,"name":"Sumuranyar","address":"5 Sachtjen Center","lng":"114.0625","lat":"-7.7546"},
{"id":935,"name":"Sedandang","address":"6 Moland Circle","lng":106.7567589,"lat":-6.2649072},
{"id":936,"name":"Pinhal de Frades","address":"6835 Anthes Parkway","lng":-9.0880453,"lat":38.5961493},
{"id":937,"name":"Ban Haet","address":"9506 Vera Alley","lng":100.4842054,"lat":13.7836468},
{"id":938,"name":"Dmitriyevskaya","address":"5119 Raven Plaza","lng":40.7666934,"lat":45.6592536},
{"id":939,"name":"Llocllapampa","address":"6 Brown Lane","lng":"-75.62382","lat":"-11.81781"},
{"id":940,"name":"San Ramón de la Nueva Orán","address":"4886 Novick Park","lng":-64.325272,"lat":-23.144255},
{"id":941,"name":"Charleston","address":"0307 Bartillon Crossing","lng":-79.9365839,"lat":32.7830575},
{"id":942,"name":"Hannover","address":"5 Moland Road","lng":9.7156831,"lat":52.3863062},
{"id":943,"name":"Chakwāl","address":"90 Portage Parkway","lng":72.4228661,"lat":32.454801},
{"id":944,"name":"Tawangsari","address":"067 Kim Hill","lng":110.7897275,"lat":-7.7285206},
{"id":945,"name":"Banjar Medura","address":"24 Magdeline Street","lng":"115.2533","lat":"-8.6926"},
{"id":946,"name":"Río Cauto","address":"5 Sauthoff Road","lng":-76.9095647,"lat":20.5599652},
{"id":947,"name":"Paihia","address":"561 Fairview Trail","lng":174.0890941,"lat":-35.3714074},
{"id":948,"name":"Liangyaping","address":"7793 Eagan Point","lng":107.803911,"lat":30.674362},
{"id":949,"name":"Bang Rak","address":"37 Fairview Place","lng":100.5148471,"lat":13.7246078},
{"id":950,"name":"Cusco","address":"051 Dovetail Road","lng":-71.9674626,"lat":-13.53195},
{"id":951,"name":"Briteiros Santa Leocádia","address":"076 Ridge Oak Road","lng":-8.346058,"lat":41.5256088},
{"id":952,"name":"Tanudan","address":"336 Holmberg Center","lng":121.1666679,"lat":17.2906593},
{"id":953,"name":"Cingambul","address":"408 Paget Parkway","lng":108.3207992,"lat":-7.0341681},
{"id":954,"name":"Salto","address":"2 Kingsford Avenue","lng":-57.9600793,"lat":-31.3854988},
{"id":955,"name":"Łomża","address":"4 Buhler Alley","lng":22.0862303,"lat":53.1859207},
{"id":956,"name":"El Capulin","address":"1 Jackson Pass","lng":-100.3245306,"lat":21.037786},
{"id":957,"name":"Hirakata","address":"5402 Sunfield Alley","lng":139.8966924,"lat":38.7755649},
{"id":958,"name":"Pas Pul","address":"70 Stuart Circle","lng":70.6142436,"lat":37.4749019},
{"id":959,"name":"Reforma","address":"5 Susan Hill","lng":-93.1548091,"lat":17.8579334},
{"id":960,"name":"Puger","address":"43 Forster Circle","lng":113.3704466,"lat":-8.4779418},
{"id":961,"name":"Umm as Summāq","address":"52 Autumn Leaf Pass","lng":35.8492033,"lat":31.9780238},
{"id":962,"name":"Jiakexi","address":"18 Moose Plaza","lng":89.227769,"lat":28.578756},
{"id":963,"name":"Hushaat","address":"5842 Anderson Terrace","lng":"105.61667","lat":"49.5"},
{"id":964,"name":"Rio das Ostras","address":"5457 Dottie Street","lng":-41.8625084,"lat":-22.4206096},
{"id":965,"name":"Springfield","address":"9 Duke Drive","lng":-77.19,"lat":38.79},
{"id":966,"name":"Jimusa’er","address":"5 Loftsgordon Court","lng":89.1806674,"lat":43.9912932},
{"id":967,"name":"Karvia","address":"00 Northridge Point","lng":22.55812,"lat":62.1331515},
{"id":968,"name":"Kut Chap","address":"84 Emmet Terrace","lng":102.5642447,"lat":17.4214483},
{"id":969,"name":"Hongshan","address":"8641 Dwight Center","lng":113.39277,"lat":22.517585},
{"id":970,"name":"Ferapontovo","address":"12957 Kinsman Place","lng":38.5788289,"lat":59.9519165},
{"id":971,"name":"Limbuš","address":"22885 Eliot Terrace","lng":15.5817763,"lat":46.5548251},
{"id":972,"name":"Tallaght","address":"2 Hermina Court","lng":-6.3660863,"lat":53.2874153},
{"id":973,"name":"San Pedro Apartado","address":"6 Nelson Pass","lng":120.5648017,"lat":15.8352583},
{"id":974,"name":"Liulang","address":"4 Crownhardt Road","lng":118.549164,"lat":31.245723},
{"id":975,"name":"Sędziszów","address":"89380 Forster Parkway","lng":20.0561066,"lat":50.5504728},
{"id":976,"name":"Granada","address":"326 Goodland Place","lng":-3.6002547,"lat":37.1691224},
{"id":977,"name":"Oss","address":"7460 Autumn Leaf Hill","lng":5.5510411,"lat":51.7610501},
{"id":978,"name":"Sujitan","address":"3 Schlimgen Circle","lng":101.225991,"lat":37.517256},
{"id":979,"name":"Yunlu","address":"3 Anzinger Park","lng":116.468928,"lat":23.583208},
{"id":980,"name":"Mont-de-Marsan","address":"60569 David Circle","lng":-0.5046003,"lat":43.884893},
{"id":981,"name":"Musan-ŭp","address":"2865 Troy Avenue","lng":"129.20776","lat":"42.22609"},
{"id":982,"name":"Puncaksempur","address":"1 Westridge Junction","lng":106.8448686,"lat":-7.040572},
{"id":983,"name":"Chengxiang","address":"689 Dwight Circle","lng":118.993885,"lat":25.419319},
{"id":984,"name":"Baturaja","address":"79 International Hill","lng":103.8390162,"lat":-5.0402647},
{"id":985,"name":"Sioux Falls","address":"03 East Circle","lng":-96.722641,"lat":43.521619},
{"id":986,"name":"Skiáthos","address":"05 Gale Hill","lng":23.4901667,"lat":39.16352},
{"id":987,"name":"Göteborg","address":"7913 Southridge Crossing","lng":11.9727803,"lat":57.7069317},
{"id":988,"name":"Koceljeva","address":"09391 Hollow Ridge Lane","lng":19.8223207,"lat":44.4693308},
{"id":989,"name":"Norton","address":"20 Vera Court","lng":30.6775054,"lat":-17.8766507},
{"id":990,"name":"San Antonio","address":"60140 Spaight Point","lng":-99.2058279,"lat":19.4805668},
{"id":991,"name":"Merton","address":"9 Burrows Plaza","lng":-0.2050566,"lat":51.4255297},
{"id":992,"name":"Bagakay","address":"12 Autumn Leaf Drive","lng":123.9839638,"lat":10.3570129},
{"id":993,"name":"Farafangana","address":"6351 Eastwood Way","lng":47.818038,"lat":-22.817412},
{"id":994,"name":"Realeza","address":"856 Tony Circle","lng":-53.5419225,"lat":-25.6801783},
{"id":995,"name":"Ivyanyets","address":"751 Thompson Trail","lng":26.7405466,"lat":53.8882122},
{"id":996,"name":"Phù Cát","address":"71 Tennessee Trail","lng":109.0547476,"lat":14.0134002},
{"id":997,"name":"Jiazhi","address":"61 John Wall Place","lng":116.061522,"lat":22.879493},
{"id":998,"name":"Xihu","address":"35889 4th Trail","lng":120.1502699,"lat":30.2427011},
{"id":999,"name":"Sumanding","address":"0 Lakeland Pass","lng":110.8642328,"lat":-6.5640911},
{"id":1000,"name":"Na Chaluai","address":"2637 Armistice Plaza","lng":105.1960795,"lat":14.5520342},
  {"id":1001,"name":"San Juan","address":"17 Orin Terrace","lng":121.0317737,"lat":14.565668},
  {"id":1002,"name":"Milotice","address":"35 International Circle","lng":17.1329667,"lat":48.9563647},
  {"id":1003,"name":"Fenoarivo Be","address":"3 Wayridge Avenue","lng":49.36706,"lat":-17.3256545},
  {"id":1004,"name":"Taquara","address":"3853 Express Center","lng":-50.7757844,"lat":-29.6509722},
  {"id":1005,"name":"Santa Teresa","address":"4 Kim Terrace","lng":121.9944005,"lat":10.4373128},
  {"id":1006,"name":"Gaide","address":"886 Meadow Vale Road","lng":101.433298,"lat":36.040149},
  {"id":1007,"name":"Balīlā","address":"40 Pennsylvania Pass","lng":35.9362859,"lat":32.389131},
  {"id":1008,"name":"Haiyu","address":"04 Shelley Lane","lng":120.803452,"lat":31.746017},
  {"id":1009,"name":"Bei’an","address":"63 Crescent Oaks Lane","lng":126.481867,"lat":48.239135},
  {"id":1010,"name":"Xingang","address":"94 Manley Point","lng":117.6852235,"lat":39.0063718},
  {"id":1011,"name":"Ibirataia","address":"1 New Castle Pass","lng":-39.6724573,"lat":-13.9468358},
  {"id":1012,"name":"Damaturu","address":"93 Sundown Lane","lng":11.9661922,"lat":11.7469961},
  {"id":1013,"name":"Djounie","address":"24724 Cherokee Parkway","lng":35.6344491,"lat":33.9842691},
  {"id":1014,"name":"Zubtsov","address":"18992 Tennyson Court","lng":34.5735627,"lat":56.170028},
  {"id":1015,"name":"Jardinópolis","address":"311 Hintze Circle","lng":-47.7772049,"lat":-21.0277616},
  {"id":1016,"name":"Keratéa","address":"369 Dryden Road","lng":23.9763412,"lat":37.8071796},
  {"id":1017,"name":"Pinsk","address":"64 Pleasure Street","lng":26.0634602,"lat":52.1124967},
  {"id":1018,"name":"Laḩij","address":"44 Oxford Drive","lng":44.8832833,"lat":13.0578415},
  {"id":1019,"name":"Iwo","address":"60712 North Court","lng":4.1872178,"lat":7.6292088},
  {"id":1020,"name":"Yangxiang","address":"76845 Esch Trail","lng":105.759939,"lat":24.348365},
  {"id":1021,"name":"Mbandaka","address":"2933 Macpherson Drive","lng":18.2970692,"lat":0.0265717},
  {"id":1022,"name":"Gongchenqiao","address":"00515 Transport Junction","lng":120.144771,"lat":30.321469},
  {"id":1023,"name":"Danzi","address":"972 International Pass","lng":129.627161,"lat":44.573753},
  {"id":1024,"name":"Suncun","address":"80 Packers Avenue","lng":117.302269,"lat":36.689044},
  {"id":1025,"name":"Nāḩiyat Alī ash Sharqī","address":"0 Lake View Center","lng":"46.74928","lat":"32.12287"},
  {"id":1026,"name":"Leping","address":"605 Claremont Junction","lng":117.151796,"lat":28.97844},
  {"id":1027,"name":"Västerås","address":"7 Springview Circle","lng":16.6108186,"lat":59.6833779},
  {"id":1028,"name":"Zaytā","address":"14 Thierer Drive","lng":35.123932,"lat":31.559274},
  {"id":1029,"name":"Xinqiao","address":"12184 Gale Plaza","lng":121.315718,"lat":31.058765},
  {"id":1030,"name":"Lagunillas","address":"4237 Dakota Center","lng":-71.1448516,"lat":10.1901874},
  {"id":1031,"name":"Longgang","address":"37 Ruskin Way","lng":114.246899,"lat":22.720974},
  {"id":1032,"name":"Vília","address":"79572 Forest Pass","lng":23.3389501,"lat":38.1670027},
  {"id":1033,"name":"Chonchi","address":"9241 Eagle Crest Plaza","lng":-73.7738499,"lat":-42.6232593},
  {"id":1034,"name":"Muting","address":"06708 Manitowish Plaza","lng":140.4308159,"lat":-7.3162208},
  {"id":1035,"name":"Cocabamba","address":"803 Ryan Pass","lng":-78.016667,"lat":-6.6},
  {"id":1036,"name":"Alibunan","address":"16508 Meadow Ridge Point","lng":125.157404,"lat":7.2992002},
  {"id":1037,"name":"Sŏnbong","address":"101 Sunnyside Road","lng":130.3874889,"lat":42.3383958},
  {"id":1038,"name":"Basco","address":"9805 Mockingbird Way","lng":121.9685567,"lat":20.448773},
  {"id":1039,"name":"Tanjung Palas","address":"0 Blackbird Alley","lng":117.2911248,"lat":2.8426922},
  {"id":1040,"name":"Irving","address":"002 Buhler Street","lng":-96.967936,"lat":32.886855},
  {"id":1041,"name":"Kayangel","address":"022 Burrows Avenue","lng":134.702778,"lat":8.07},
  {"id":1042,"name":"Munggang","address":"28688 Warrior Trail","lng":107.8569988,"lat":-6.7837708},
  {"id":1043,"name":"Longsha","address":"5149 Eagan Alley","lng":123.9575311,"lat":47.317308},
  {"id":1044,"name":"Březí","address":"14 Barnett Park","lng":16.2159455,"lat":49.3431786},
  {"id":1045,"name":"Fuzihe","address":"476 Meadow Valley Terrace","lng":119.296482,"lat":26.074478},
  {"id":1046,"name":"Lębork","address":"4289 Cottonwood Hill","lng":17.7510347,"lat":54.5343125},
  {"id":1047,"name":"Birinci Aşıqlı","address":"7 Sloan Hill","lng":47.675856,"lat":39.8213543},
  {"id":1048,"name":"Chaviña","address":"28399 Brentwood Drive","lng":-73.841164,"lat":-14.98306},
  {"id":1049,"name":"Ugbokpo","address":"32684 Dapin Way","lng":7.9266015,"lat":7.679352},
  {"id":1050,"name":"Puqi","address":"03944 Hoffman Drive","lng":113.900628,"lat":29.724692},
  {"id":1051,"name":"Brzeszcze","address":"3891 Browning Parkway","lng":19.177858,"lat":49.966515},
  {"id":1052,"name":"Starychi","address":"0 Fairview Avenue","lng":23.5488713,"lat":49.9742883},
  {"id":1053,"name":"Nantes","address":"335 Nevada Trail","lng":-1.5401497,"lat":47.2550409},
  {"id":1054,"name":"Luchegorsk","address":"38 Blackbird Plaza","lng":134.3078003,"lat":46.4457008},
  {"id":1055,"name":"Ligang","address":"18083 Crescent Oaks Road","lng":120.085146,"lat":31.919897},
  {"id":1056,"name":"Lāliān","address":"67 Oxford Park","lng":72.4156898,"lat":31.5769405},
  {"id":1057,"name":"Krong Pi Nang","address":"3350 Pepper Wood Avenue","lng":101.277052,"lat":6.426373},
  {"id":1058,"name":"Jacksonville","address":"6048 Kings Alley","lng":-81.5870604,"lat":30.3776024},
  {"id":1059,"name":"Kute","address":"4397 Butterfield Lane","lng":115.1767095,"lat":-8.7223957},
  {"id":1060,"name":"Rapas","address":"6014 Hovde Pass","lng":132.324948,"lat":-2.1653279},
  {"id":1061,"name":"Hengxizhen","address":"5 Mitchell Crossing","lng":114.057865,"lat":22.543096},
  {"id":1062,"name":"Eskilstuna","address":"276 Kropf Plaza","lng":16.3732686,"lat":59.4084121},
  {"id":1063,"name":"Sabanalarga","address":"4 Bunting Crossing","lng":-72.9899505,"lat":4.8413815},
  {"id":1064,"name":"Shinyanga","address":"8730 Shelley Park","lng":33.4271403,"lat":-3.6809961},
  {"id":1065,"name":"Kyzylzhar","address":"63089 Mayfield Way","lng":69.2398607,"lat":54.8625893},
  {"id":1066,"name":"Mombetsu","address":"299 Esch Junction","lng":143.3024788,"lat":42.3968365},
  {"id":1067,"name":"Muara Dua","address":"4659 Porter Road","lng":104.0769024,"lat":-4.5261835},
  {"id":1068,"name":"Xucheng","address":"89 La Follette Pass","lng":113.852454,"lat":34.035771},
  {"id":1069,"name":"Francisco Villa","address":"730 Butterfield Avenue","lng":-99.0591821,"lat":19.3376878},
  {"id":1070,"name":"Cipari Satu","address":"2 Talisman Junction","lng":108.7437098,"lat":-7.428179},
  {"id":1071,"name":"Seixo Alvo","address":"2 Raven Street","lng":-8.5177375,"lat":41.0550723},
  {"id":1072,"name":"Wadusari","address":"7 Marcy Road","lng":108.6383454,"lat":-7.3118486},
  {"id":1073,"name":"Sambopinggir","address":"798 Oak Valley Junction","lng":112.4798088,"lat":-7.0215218},
  {"id":1074,"name":"Shejiang","address":"02 Debs Avenue","lng":119.7889248,"lat":29.1416432},
  {"id":1075,"name":"Chipinge","address":"4182 Esch Pass","lng":32.6333973,"lat":-20.1914261},
  {"id":1076,"name":"Am Djarass","address":"7277 Mallory Point","lng":"22.84308","lat":"16.06589"},
  {"id":1077,"name":"Rio Novo do Sul","address":"4 Carioca Lane","lng":-40.9384914,"lat":-20.8250212},
  {"id":1078,"name":"Imbang","address":"5 Lerdahl Alley","lng":122.6533918,"lat":11.0990419},
  {"id":1079,"name":"Piraí","address":"31616 Dovetail Drive","lng":-43.9055155,"lat":-22.602558},
  {"id":1080,"name":"Chone","address":"165 Everett Plaza","lng":-80.109357,"lat":-0.7140022},
  {"id":1081,"name":"Sandnes","address":"009 Killdeer Crossing","lng":16.0707095,"lat":67.1335945},
  {"id":1082,"name":"Amouguer","address":"611 Orin Place","lng":-5.1174039,"lat":31.9963592},
  {"id":1083,"name":"Mojo","address":"26710 Jackson Alley","lng":39.1231459,"lat":8.5870183},
  {"id":1084,"name":"Cotton Ground","address":"876 Green Ridge Street","lng":-62.617788,"lat":17.1744437},
  {"id":1085,"name":"Nouakchott","address":"1 Weeping Birch Court","lng":-15.9582372,"lat":18.0735299},
  {"id":1086,"name":"Nsok","address":"76 Ridgeway Street","lng":11.267967,"lat":1.1287179},
  {"id":1087,"name":"Hongsi","address":"7 New Castle Road","lng":100.825981,"lat":38.604702},
  {"id":1088,"name":"Gjirokastër","address":"22798 Merchant Pass","lng":20.1045229,"lat":40.0672874},
  {"id":1089,"name":"Stepanovićevo","address":"14255 Brentwood Road","lng":19.6990997,"lat":45.4141891},
  {"id":1090,"name":"Onitsha","address":"90477 Sheridan Parkway","lng":6.8029489,"lat":6.1413122},
  {"id":1091,"name":"Sedan","address":"3 Stone Corner Lane","lng":4.9404055,"lat":49.7052493},
  {"id":1092,"name":"Longjumeau","address":"4 Vermont Court","lng":2.2924369,"lat":48.6843964},
  {"id":1093,"name":"Novomoskovsk","address":"10 Bonner Junction","lng":38.2899306,"lat":53.9559626},
  {"id":1094,"name":"Campinho","address":"837 5th Avenue","lng":-7.4731029,"lat":38.365641},
  {"id":1095,"name":"Baoxia","address":"586 Independence Plaza","lng":110.341615,"lat":32.707997},
  {"id":1096,"name":"Hanfeng","address":"22202 Corscot Junction","lng":113.290609,"lat":23.084827},
  {"id":1097,"name":"Mazańcowice","address":"855 Nevada Circle","lng":18.9770856,"lat":49.858677},
  {"id":1098,"name":"Qŭshkŭpir","address":"62520 Lyons Plaza","lng":"60.34556","lat":"41.535"},
  {"id":1099,"name":"Medovene","address":"8 Grover Crossing","lng":26.5290794,"lat":43.7728532},
  {"id":1100,"name":"Saint-Quentin-en-Yvelines","address":"70 Bunting Terrace","lng":2.0441607,"lat":48.7878212},
  {"id":1101,"name":"Bhakkar","address":"32 Dixon Terrace","lng":71.2845323,"lat":31.4784522},
  {"id":1102,"name":"Wuhu","address":"5630 Sunnyside Way","lng":118.432941,"lat":31.352859},
  {"id":1103,"name":"Jiusi","address":"778 Del Sol Lane","lng":107.454787,"lat":26.096382},
  {"id":1104,"name":"Dampol","address":"876 Carioca Road","lng":121.0006616,"lat":14.6473171},
  {"id":1105,"name":"Spanish Town","address":"361 Schlimgen Avenue","lng":-76.9758274,"lat":18.0193171},
  {"id":1106,"name":"Bharatpur","address":"757 Montana Avenue","lng":84.4172666,"lat":27.6486636},
  {"id":1107,"name":"Charlotte","address":"62238 Eliot Terrace","lng":-80.84,"lat":35.2299999},
  {"id":1108,"name":"Majie","address":"462 Dorton Drive","lng":103.7137773,"lat":27.3306951},
  {"id":1109,"name":"Shuigou","address":"8072 Mallory Lane","lng":79.9088564,"lat":37.1212974},
  {"id":1110,"name":"Yelat’ma","address":"8267 Prairieview Plaza","lng":"41.75083","lat":"54.9675"},
  {"id":1111,"name":"Ladan","address":"71 Fordem Avenue","lng":106.3316629,"lat":3.3570113},
  {"id":1112,"name":"Chahe","address":"03835 Logan Junction","lng":108.957345,"lat":19.238934},
  {"id":1113,"name":"Yinla","address":"78284 Nova Crossing","lng":117.2786906,"lat":35.6478877},
  {"id":1114,"name":"Ilha de Moçambique","address":"911 Brickson Park Circle","lng":40.7323311,"lat":-15.0364493},
  {"id":1115,"name":"Ciudad Nueva","address":"0339 Eagan Street","lng":-69.8932436,"lat":18.4670158},
  {"id":1116,"name":"Corrientes","address":"0942 Norway Maple Point","lng":-60.6499935,"lat":-32.9760359},
  {"id":1117,"name":"Buyuan","address":"3 Russell Way","lng":124.2469573,"lat":8.2414293},
  {"id":1118,"name":"Lapu-Lapu City","address":"6 South Avenue","lng":123.951757,"lat":10.31128},
  {"id":1119,"name":"Xarardheere","address":"6946 Karstens Street","lng":47.8563151,"lat":4.6559524},
  {"id":1120,"name":"West End","address":"2254 Susan Plaza","lng":-78.9712451,"lat":26.6866896},
  {"id":1121,"name":"Mörrum","address":"2536 Morningstar Circle","lng":14.776605,"lat":56.1908828},
  {"id":1122,"name":"Brikama","address":"5 Kipling Place","lng":-16.6409198,"lat":13.2747943},
  {"id":1123,"name":"Jingxin","address":"823 Center Parkway","lng":-95.5216667,"lat":30.0747701},
  {"id":1124,"name":"Tsaritsyno","address":"3062 Basil Crossing","lng":37.6861486,"lat":55.6116874},
  {"id":1125,"name":"Portland","address":"02245 Fallview Crossing","lng":-122.6788535,"lat":45.5155832},
  {"id":1126,"name":"Suhopolje","address":"3 Garrison Junction","lng":17.497172,"lat":45.8022541},
  {"id":1127,"name":"Ubajami","address":"4159 Scoville Trail","lng":"121.7895","lat":"-10.5182"},
  {"id":1128,"name":"Menlou","address":"630 Kipling Plaza","lng":121.241089,"lat":37.417116},
  {"id":1129,"name":"San Lorenzo de Esmeraldas","address":"7449 Forest Street","lng":-78.8439268,"lat":1.2694769},
  {"id":1130,"name":"Conima","address":"341 Tomscot Crossing","lng":-69.4355341,"lat":-15.4601506},
  {"id":1131,"name":"Barat","address":"462 John Wall Circle","lng":106.9602906,"lat":-6.2284889},
  {"id":1132,"name":"Shuicha","address":"6 Meadow Ridge Park","lng":115.067761,"lat":26.520513},
  {"id":1133,"name":"Huaihua","address":"81986 Shasta Street","lng":110.001922,"lat":27.569517},
  {"id":1134,"name":"Irkliyevskaya","address":"0 Hoffman Place","lng":39.6551933,"lat":45.8585463},
  {"id":1135,"name":"Boulaide","address":"7953 Pleasure Street","lng":5.8121284,"lat":49.886516},
  {"id":1136,"name":"Raleigh","address":"9385 Moose Lane","lng":-78.6169494,"lat":35.8054733},
  {"id":1137,"name":"Cipolletti","address":"4 Morrow Junction","lng":-67.993234,"lat":-38.951448},
  {"id":1138,"name":"Yingshouyingzi","address":"38060 Washington Center","lng":117.659499,"lat":40.546361},
  {"id":1139,"name":"Zhenqiao","address":"53 1st Way","lng":118.677372,"lat":32.513883},
  {"id":1140,"name":"Thongwa","address":"02 Springs Avenue","lng":96.5329775,"lat":16.7646219},
  {"id":1141,"name":"Langgapayung","address":"32707 Fairfield Trail","lng":99.9688636,"lat":1.6699249},
  {"id":1142,"name":"Mira","address":"4 Farragut Point","lng":-8.7370509,"lat":40.425421},
  {"id":1143,"name":"Dandian","address":"7504 Jenifer Trail","lng":115.190725,"lat":30.762716},
  {"id":1144,"name":"Gävle","address":"808 Golden Leaf Drive","lng":17.153166,"lat":60.684976},
  {"id":1145,"name":"Houzhai","address":"56235 American Hill","lng":119.975172,"lat":31.437058},
  {"id":1146,"name":"Pulo","address":"680 Gateway Circle","lng":120.8551691,"lat":15.3098074},
  {"id":1147,"name":"Vitarte","address":"687 Scott Circle","lng":-76.928749,"lat":-12.03856},
  {"id":1148,"name":"Nedašov","address":"7 Corscot Center","lng":18.0703677,"lat":49.1077842},
  {"id":1149,"name":"Łąka Prudnicka","address":"8310 Beilfuss Hill","lng":17.5957117,"lat":50.4868505},
  {"id":1150,"name":"Krasica","address":"6302 Loeprich Parkway","lng":13.6968992,"lat":45.3836941},
  {"id":1151,"name":"Ban Phai","address":"2 Judy Drive","lng":102.7020218,"lat":16.1169002},
  {"id":1152,"name":"Tuncheng","address":"5131 Thierer Lane","lng":110.104886,"lat":19.371561},
  {"id":1153,"name":"Falun","address":"61 Northport Street","lng":15.6527231,"lat":60.6152048},
  {"id":1154,"name":"Krajan Baru","address":"09569 Marcy Avenue","lng":110.2579036,"lat":-6.9484206},
  {"id":1155,"name":"Lianyi","address":"45 Garrison Way","lng":118.356414,"lat":35.104673},
  {"id":1156,"name":"Arras","address":"309 Esker Center","lng":2.7425682,"lat":50.2837307},
  {"id":1157,"name":"Tabivere","address":"76 Barnett Alley","lng":26.6261976,"lat":58.5560583},
  {"id":1158,"name":"Houmt Souk","address":"8 Menomonie Circle","lng":10.850791,"lat":33.8787981},
  {"id":1159,"name":"Guadalupe","address":"9 Manitowish Place","lng":-100.2602364,"lat":25.6765837},
  {"id":1160,"name":"Shcherbinka","address":"118 Redwing Plaza","lng":37.5985159,"lat":55.536259},
  {"id":1161,"name":"Bila","address":"2985 Warrior Parkway","lng":16.9261199,"lat":43.7764262},
  {"id":1162,"name":"Port-Vila","address":"8259 Meadow Ridge Street","lng":168.3273245,"lat":-17.7332512},
  {"id":1163,"name":"Nakhon Pathom","address":"399 Hanson Center","lng":100.0601382,"lat":13.81967},
  {"id":1164,"name":"Chemodanovka","address":"5076 Carioca Place","lng":45.2551096,"lat":53.2254858},
  {"id":1165,"name":"Kilifi","address":"607 Bobwhite Trail","lng":39.9093269,"lat":-3.5106508},
  {"id":1166,"name":"Guruyan","address":"18 Kedzie Avenue","lng":123.9719166,"lat":12.7523556},
  {"id":1167,"name":"Huangbayi","address":"247 Esker Trail","lng":106.135955,"lat":32.75348},
  {"id":1168,"name":"Suchań","address":"2 Rieder Center","lng":15.2926343,"lat":53.2856154},
  {"id":1169,"name":"El Limon","address":"92476 Rutledge Crossing","lng":-104.8786647,"lat":21.5117028},
  {"id":1170,"name":"Zongzhai","address":"73041 Vidon Terrace","lng":113.625328,"lat":34.746611},
  {"id":1171,"name":"San Diego","address":"77 Monica Crossing","lng":-73.180718,"lat":10.333974},
  {"id":1172,"name":"Nakatsugawa","address":"9058 Fulton Place","lng":136.4995151,"lat":36.0006475},
  {"id":1173,"name":"Cahuacho","address":"8631 Farwell Terrace","lng":-73.4797036,"lat":-15.5030873},
  {"id":1174,"name":"Jinjing","address":"2724 Express Trail","lng":118.552365,"lat":24.781681},
  {"id":1175,"name":"Jember","address":"295 Gina Circle","lng":113.6680747,"lat":-8.1844859},
  {"id":1176,"name":"Taldom","address":"32391 Talmadge Hill","lng":37.5577219,"lat":56.7679359},
  {"id":1177,"name":"Baota","address":"1 Wayridge Trail","lng":109.493107,"lat":36.591213},
  {"id":1178,"name":"Karkkila","address":"55933 Heffernan Way","lng":24.2916372,"lat":60.5061173},
  {"id":1179,"name":"Benavila","address":"979 Dakota Point","lng":-7.8704768,"lat":39.1110776},
  {"id":1180,"name":"Waihibar","address":"7 Independence Avenue","lng":"119.6237","lat":"-9.6099"},
  {"id":1181,"name":"Pindorama","address":"1 Memorial Court","lng":-48.9081184,"lat":-21.1867409},
  {"id":1182,"name":"Aranitas","address":"00 Maple Pass","lng":19.8082799,"lat":40.5974058},
  {"id":1183,"name":"La Virgen","address":"57 Buhler Drive","lng":-99.581953,"lat":19.2535103},
  {"id":1184,"name":"Trongsa","address":"82259 Bellgrove Plaza","lng":90.5080634,"lat":27.5002269},
  {"id":1185,"name":"Thị Trấn Vạn Hà","address":"89475 Veith Park","lng":105.6791207,"lat":19.8829688},
  {"id":1186,"name":"Paraiso","address":"2991 Burning Wood Center","lng":121.017819,"lat":14.637051},
  {"id":1187,"name":"Tuplice","address":"589 Oxford Point","lng":14.874997,"lat":51.6818091},
  {"id":1188,"name":"Mỏ Cày","address":"84333 Grasskamp Avenue","lng":106.3311197,"lat":10.1310658},
  {"id":1189,"name":"Khōst","address":"1 Artisan Hill","lng":69.9371673,"lat":33.3338472},
  {"id":1190,"name":"Yangqiaodian","address":"40000 Summit Drive","lng":116.546998,"lat":28.369399},
  {"id":1191,"name":"Bambanglipuro","address":"35982 Vidon Circle","lng":110.3130087,"lat":-7.9481229},
  {"id":1192,"name":"Graz","address":"40115 Ronald Regan Avenue","lng":15.5109999,"lat":47.0765556},
  {"id":1193,"name":"Néa Péramos","address":"77675 Forest Junction","lng":24.3031958,"lat":40.8385582},
  {"id":1194,"name":"Plavy","address":"2219 Mesta Crossing","lng":15.3203304,"lat":50.7054502},
  {"id":1195,"name":"Itamaraju","address":"1047 4th Trail","lng":-39.734338,"lat":-17.0656965},
  {"id":1196,"name":"Espanola","address":"315 Carioca Pass","lng":-81.771057,"lat":46.2657181},
  {"id":1197,"name":"Józefosław","address":"825 Anzinger Pass","lng":21.053265,"lat":52.1012559},
  {"id":1198,"name":"Bell Ville","address":"211 Jay Center","lng":-58.4349355,"lat":-34.6342051},
  {"id":1199,"name":"Purwodadi","address":"8667 Shasta Trail","lng":110.9134113,"lat":-7.0872117},
  {"id":1200,"name":"Tagbilaran City","address":"17 Bowman Place","lng":123.8572829,"lat":9.6399306},
  {"id":1201,"name":"Kalvola","address":"564 Ludington Terrace","lng":24.2071941,"lat":61.0600425},
  {"id":1202,"name":"Brańsk","address":"72 Schiller Trail","lng":22.8413044,"lat":52.7433639},
  {"id":1203,"name":"Adzopé","address":"896 Fremont Alley","lng":-3.8553507,"lat":6.1071457},
  {"id":1204,"name":"Itumbiara","address":"4234 Center Trail","lng":-49.2162908,"lat":-18.4097245},
  {"id":1205,"name":"Khovd","address":"97187 Kropf Court","lng":91.634756,"lat":47.9795218},
  {"id":1206,"name":"Iperó","address":"13 Merry Parkway","lng":-47.6931718,"lat":-23.351784},
  {"id":1207,"name":"Guadalupe","address":"76564 Grover Junction","lng":-99.1135903,"lat":19.4838854},
  {"id":1208,"name":"Dinājpur","address":"63279 Magdeline Alley","lng":88.6331758,"lat":25.6279123},
  {"id":1209,"name":"Kao Liao","address":"8 Northwestern Terrace","lng":100.1031202,"lat":15.8971172},
  {"id":1210,"name":"Gatesville","address":"42932 Parkside Way","lng":-97.7347956,"lat":31.4805866},
  {"id":1211,"name":"Sukošan","address":"7847 Springview Circle","lng":15.3150024,"lat":44.0470411},
  {"id":1212,"name":"Shuangwang","address":"854 Jackson Park","lng":109.825927,"lat":21.795522},
  {"id":1213,"name":"Tsil’na","address":"161 Prentice Alley","lng":48.0835847,"lat":54.5782648},
  {"id":1214,"name":"Huskvarna","address":"7 Shasta Trail","lng":14.2483538,"lat":57.7911244},
  {"id":1215,"name":"Zaragoza","address":"70343 Melvin Avenue","lng":-0.8744828,"lat":41.6286623},
  {"id":1216,"name":"Bangkok","address":"3853 South Parkway","lng":100.4227992,"lat":13.8135951},
  {"id":1217,"name":"Sudimara","address":"14 Del Sol Alley","lng":109.1434108,"lat":-7.4289773},
  {"id":1218,"name":"Miaogou","address":"4533 Marcy Trail","lng":109.775985,"lat":32.729683},
  {"id":1219,"name":"Changle","address":"7248 Nevada Court","lng":119.523266,"lat":25.962888},
  {"id":1220,"name":"Almaguer North","address":"5 Harper Way","lng":121.0927689,"lat":16.3513442},
  {"id":1221,"name":"Solotcha","address":"79210 Bartelt Crossing","lng":39.833505,"lat":54.789029},
  {"id":1222,"name":"Maizuru","address":"8 Pine View Terrace","lng":130.3917496,"lat":33.5914293},
  {"id":1223,"name":"Argenteuil","address":"224 Dorton Pass","lng":2.257134,"lat":48.9467896},
  {"id":1224,"name":"Youlongchuan","address":"07 Pearson Center","lng":115.2778465,"lat":24.0993614},
  {"id":1225,"name":"Puerto Berrío","address":"38 Stephen Alley","lng":-74.4088,"lat":6.477755},
  {"id":1226,"name":"Takāb","address":"3 Katie Parkway","lng":47.1156092,"lat":36.4051945},
  {"id":1227,"name":"Kavalerovo","address":"587 Sauthoff Center","lng":135.0572606,"lat":44.2551686},
  {"id":1228,"name":"Jiguan","address":"314 6th Junction","lng":130.980894,"lat":45.304073},
  {"id":1229,"name":"Xinghua","address":"3 Portage Terrace","lng":119.85254,"lat":32.910459},
  {"id":1230,"name":"Ðà Lạt","address":"123 Utah Court","lng":108.4583132,"lat":11.9404192},
  {"id":1231,"name":"Caculé","address":"966 Hanover Place","lng":-42.2236477,"lat":-14.4974525},
  {"id":1232,"name":"Xiejiatan","address":"8 Stephen Pass","lng":116.726929,"lat":29.482508},
  {"id":1233,"name":"Komorní Lhotka","address":"69 Ridge Oak Terrace","lng":18.5277819,"lat":49.658104},
  {"id":1234,"name":"Xiejiaya","address":"5435 Emmet Street","lng":126.4510829,"lat":44.441584},
  {"id":1235,"name":"Budzów","address":"72 Schiller Center","lng":19.70598,"lat":49.788203},
  {"id":1236,"name":"Carromeu","address":"701 Westport Road","lng":-8.738467,"lat":40.4140806},
  {"id":1237,"name":"Jales","address":"777 Buena Vista Alley","lng":-50.5316737,"lat":-20.2687728},
  {"id":1238,"name":"Nove-Misto","address":"09107 Messerschmidt Trail","lng":22.8581776,"lat":49.6166723},
  {"id":1239,"name":"Chalan Pago-Ordot Village","address":"396 Mifflin Terrace","lng":144.7820914,"lat":13.4441374},
  {"id":1240,"name":"Tosno","address":"55633 Armistice Alley","lng":30.8896701,"lat":59.5403823},
  {"id":1241,"name":"Zielona Góra","address":"3 Fisk Alley","lng":15.4768834,"lat":51.9210929},
  {"id":1242,"name":"Staronizhestebliyevskaya","address":"5 Eagan Alley","lng":38.4403145,"lat":45.376576},
  {"id":1243,"name":"Huaqiao","address":"24 Clyde Gallagher Point","lng":118.6422409,"lat":24.9372186},
  {"id":1244,"name":"Baranów","address":"0 Stoughton Place","lng":20.4745018,"lat":52.1474235},
  {"id":1245,"name":"Stockholm","address":"9 Beilfuss Drive","lng":18.0160867,"lat":59.3257293},
  {"id":1246,"name":"Khenifra","address":"1 Crownhardt Park","lng":-5.661571,"lat":32.9340471},
  {"id":1247,"name":"Badu","address":"996 Coleman Pass","lng":106.057816,"lat":35.067361},
  {"id":1248,"name":"Makoua","address":"80523 Cardinal Way","lng":15.6119301,"lat":-0.004491},
  {"id":1249,"name":"Udomlya","address":"6 Crowley Circle","lng":34.9594447,"lat":57.8991434},
  {"id":1250,"name":"Morelos","address":"07274 Drewry Center","lng":-99.6684882,"lat":19.7899891},
  {"id":1251,"name":"Muḩambal","address":"95 8th Drive","lng":"36.4726","lat":"35.78668"},
  {"id":1252,"name":"San Vicente Pacaya","address":"88 Main Lane","lng":-90.633471,"lat":14.413539},
  {"id":1253,"name":"Vannes","address":"93 Amoth Place","lng":-2.7524402,"lat":47.6651939},
  {"id":1254,"name":"Komsomolsk-on-Amur","address":"9 Hanson Avenue","lng":137.02184,"lat":50.624491},
  {"id":1255,"name":"Hannō","address":"53 Stephen Terrace","lng":139.2562665,"lat":35.8889548},
  {"id":1256,"name":"Oslo","address":"3 Briar Crest Street","lng":10.767309,"lat":59.9026039},
  {"id":1257,"name":"Umingan","address":"2121 Weeping Birch Court","lng":120.8017163,"lat":15.9052069},
  {"id":1258,"name":"Azara","address":"2 Crowley Lane","lng":-58.7034275,"lat":-34.7008122},
  {"id":1259,"name":"Penalva de Alva","address":"0552 Waxwing Trail","lng":-7.8256005,"lat":40.336837},
  {"id":1260,"name":"Lembung Tengah","address":"6551 Reindahl Pass","lng":110.4088,"lat":-6.97832},
  {"id":1261,"name":"Welisara","address":"87282 Glacier Hill Park","lng":79.9020405,"lat":7.0241972},
  {"id":1262,"name":"Novosineglazovskiy","address":"04 Westend Lane","lng":61.3717568,"lat":55.0359955},
  {"id":1263,"name":"Mukayrās","address":"8578 Moose Road","lng":45.6787098,"lat":13.9426434},
  {"id":1264,"name":"Poja","address":"97537 Old Shore Point","lng":119.0110762,"lat":-8.4929791},
  {"id":1265,"name":"Jönköping","address":"720 Katie Road","lng":14.3117654,"lat":57.7123057},
  {"id":1266,"name":"San Nicolas","address":"18827 Monterey Center","lng":120.9522977,"lat":13.9300945},
  {"id":1267,"name":"Tangchijie","address":"1 Golden Leaf Terrace","lng":110.514837,"lat":27.358123},
  {"id":1268,"name":"Miami","address":"25 Fallview Place","lng":-80.3352364,"lat":25.5527232},
  {"id":1269,"name":"Quthing","address":"66456 Westerfield Parkway","lng":27.7080133,"lat":-30.4015687},
  {"id":1270,"name":"Maliang","address":"68 Elka Avenue","lng":112.6326321,"lat":-7.9666204},
  {"id":1271,"name":"Albi","address":"369 Walton Park","lng":2.1504611,"lat":43.9277535},
  {"id":1272,"name":"Osinniki","address":"17050 Iowa Road","lng":87.2598304,"lat":53.5484776},
  {"id":1273,"name":"San Javier","address":"8 Manufacturers Lane","lng":-58.1295074,"lat":-32.6626805},
  {"id":1274,"name":"Kombissiri","address":"1896 Melody Crossing","lng":-1.3421032,"lat":12.074325},
  {"id":1275,"name":"San Diego","address":"1715 Clyde Gallagher Trail","lng":-117.199996,"lat":32.7657318},
  {"id":1276,"name":"Mayisyan","address":"83 Marquette Circle","lng":43.8346178,"lat":40.8452606},
  {"id":1277,"name":"Chahār Burj","address":"1796 Amoth Trail","lng":"62.19165","lat":"34.24475"},
  {"id":1278,"name":"Al Lagowa","address":"69 Atwood Point","lng":29.13859,"lat":11.40567},
  {"id":1279,"name":"Mekarsari","address":"069 Farragut Pass","lng":115.1918802,"lat":-8.3765619},
  {"id":1280,"name":"Prabuty","address":"60 Shopko Pass","lng":19.2045339,"lat":53.7558642},
  {"id":1281,"name":"Burqah","address":"0582 Talisman Court","lng":35.254768,"lat":31.896059},
  {"id":1282,"name":"Esperança","address":"1861 Fulton Avenue","lng":-35.8934136,"lat":-6.980092},
  {"id":1283,"name":"Byuravan","address":"6732 Graedel Terrace","lng":44.5191627,"lat":40.0150745},
  {"id":1284,"name":"Aghada","address":"1945 Packers Alley","lng":-8.4627451,"lat":54.25645},
  {"id":1285,"name":"Milán","address":"79 International Place","lng":-75.51081,"lat":1.33546},
  {"id":1286,"name":"Zarechnyy","address":"469 Steensland Junction","lng":45.1560169,"lat":53.2169534},
  {"id":1287,"name":"Yong’an","address":"67 Harper Park","lng":117.365052,"lat":25.941937},
  {"id":1288,"name":"Shalamzār","address":"2346 Pennsylvania Point","lng":50.8157258,"lat":32.04541},
  {"id":1289,"name":"Carodok","address":"81054 Chinook Alley","lng":"105.8508","lat":"-6.5823"},
  {"id":1290,"name":"Yangirabot","address":"01 Summerview Avenue","lng":65.9690392,"lat":40.0395689},
  {"id":1291,"name":"Roubaix","address":"09084 Lukken Way","lng":3.1845673,"lat":50.6930818},
  {"id":1292,"name":"Old City","address":"9 Boyd Drive","lng":35.2324593,"lat":31.7776563},
  {"id":1293,"name":"Ourozinho","address":"3 Lakeland Point","lng":-7.3462545,"lat":40.951501},
  {"id":1294,"name":"Caijiagang","address":"6650 Scoville Center","lng":120.556005,"lat":31.875572},
  {"id":1295,"name":"Inari","address":"4953 Spenser Drive","lng":30.9967709,"lat":63.3030414},
  {"id":1296,"name":"Machado","address":"61418 Bowman Street","lng":-45.9420118,"lat":-21.6437404},
  {"id":1297,"name":"San Juan Opico","address":"824 Linden Center","lng":-89.3582599,"lat":13.8758656},
  {"id":1298,"name":"Al Muţayrifī","address":"8 Ridgeview Plaza","lng":49.5547333,"lat":25.482034},
  {"id":1299,"name":"Aţ Ţawāḩīn","address":"278 Continental Road","lng":"36.21444","lat":"35.12751"},
  {"id":1300,"name":"Asahbadung","address":"1 Fairview Point","lng":115.16736,"lat":-8.665118},
  {"id":1301,"name":"Ban Houakhoua","address":"9676 Buell Crossing","lng":101.799742,"lat":21.4692055},
  {"id":1302,"name":"Koktal","address":"1466 Arrowood Court","lng":75.2050312,"lat":45.4592577},
  {"id":1303,"name":"Al Wāsiţah","address":"2297 Redwing Place","lng":31.4656904,"lat":31.2385954},
  {"id":1304,"name":"Kushnarënkovo","address":"580 Tennessee Plaza","lng":55.3377071,"lat":55.1065781},
  {"id":1305,"name":"Cusco","address":"1996 Summer Ridge Trail","lng":-71.9674626,"lat":-13.53195},
  {"id":1306,"name":"Portet-sur-Garonne","address":"726 Autumn Leaf Court","lng":1.402934,"lat":43.53121},
  {"id":1307,"name":"Winong","address":"4221 Jay Circle","lng":109.9526633,"lat":-7.6695988},
  {"id":1308,"name":"Maslog","address":"06 Prairie Rose Street","lng":125.24729,"lat":12.146493},
  {"id":1309,"name":"Wawer","address":"6075 Briar Crest Plaza","lng":21.14523,"lat":52.199771},
  {"id":1310,"name":"Chaltyr","address":"68 Hermina Alley","lng":39.4991783,"lat":47.284461},
  {"id":1311,"name":"Bergen","address":"42914 Stone Corner Drive","lng":5.3446343,"lat":60.3560649},
  {"id":1312,"name":"Roubaix","address":"3935 Dapin Terrace","lng":3.1685214,"lat":50.7022235},
  {"id":1313,"name":"Shirokaya Rechka","address":"09 Elmside Crossing","lng":60.4890295,"lat":56.7980147},
  {"id":1314,"name":"Patrocínio","address":"2739 Continental Trail","lng":-47.058302,"lat":-18.998706},
  {"id":1315,"name":"Marantao","address":"9 Drewry Hill","lng":121.058178,"lat":14.499307},
  {"id":1316,"name":"Jinzao","address":"6801 Granby Way","lng":121.1268459,"lat":41.095685},
  {"id":1317,"name":"Shijiazhuang","address":"19967 Maryland Terrace","lng":114.514893,"lat":38.042805},
  {"id":1318,"name":"Chegang","address":"3539 Mayer Hill","lng":130.297964,"lat":47.349916},
  {"id":1319,"name":"Guéret","address":"0 Nelson Point","lng":1.8852108,"lat":46.1705063},
  {"id":1320,"name":"Lincoln","address":"7315 Granby Place","lng":-58.7373137,"lat":-34.6143064},
  {"id":1321,"name":"Tillabéri","address":"25 Sage Drive","lng":2.1450245,"lat":14.6489525},
  {"id":1322,"name":"Tân Phú","address":"7 Norway Maple Way","lng":106.6281901,"lat":10.7900517},
  {"id":1323,"name":"Verkhovyna","address":"9129 Lawn Pass","lng":24.8196946,"lat":48.1543232},
  {"id":1324,"name":"San Antonio Huista","address":"6 Forest Dale Lane","lng":-91.7638749,"lat":15.6562837},
  {"id":1325,"name":"Yanwo","address":"89928 Blaine Court","lng":106.5767662,"lat":29.5582227},
  {"id":1326,"name":"Chuanshan","address":"4962 Carioca Circle","lng":105.568297,"lat":30.525475},
  {"id":1327,"name":"Obudovac","address":"2629 Vernon Terrace","lng":18.6011657,"lat":44.9727255},
  {"id":1328,"name":"Chikan","address":"282 Westport Place","lng":112.578178,"lat":22.326471},
  {"id":1329,"name":"Arneiro","address":"9 Golf Course Point","lng":-9.3300248,"lat":38.7063132},
  {"id":1330,"name":"São Luís de Montes Belos","address":"795 Mosinee Terrace","lng":-50.3730843,"lat":-16.521513},
  {"id":1331,"name":"Hafnarfjörður","address":"9954 Aberg Junction","lng":-21.986995,"lat":64.0516089},
  {"id":1332,"name":"La Romana","address":"2 Springview Court","lng":-70.4070779,"lat":18.9313146},
  {"id":1333,"name":"Lima","address":"378 Sauthoff Way","lng":-77.042754,"lat":-12.0463731},
  {"id":1334,"name":"Comalapa","address":"2365 Longview Point","lng":-90.9199977,"lat":14.7567271},
  {"id":1335,"name":"Krasnosilka","address":"3862 Loftsgordon Trail","lng":30.7719233,"lat":46.6211188},
  {"id":1336,"name":"Thanh Khê","address":"36 Novick Avenue","lng":108.1873407,"lat":16.0641802},
  {"id":1337,"name":"Karangsari","address":"7968 Forest Dale Pass","lng":110.9561,"lat":-6.427987},
  {"id":1338,"name":"Amieira","address":"2 Buhler Place","lng":-8.6239676,"lat":41.1848533},
  {"id":1339,"name":"Chahannao","address":"1173 Paget Way","lng":107.9808971,"lat":39.0865525},
  {"id":1340,"name":"Shangdu","address":"56703 Maryland Parkway","lng":104.066801,"lat":30.572815},
  {"id":1341,"name":"Vermelha","address":"486 Manitowish Place","lng":-9.1052924,"lat":39.2699174},
  {"id":1342,"name":"Bankim","address":"07 Browning Trail","lng":11.4878714,"lat":6.0849674},
  {"id":1343,"name":"Zhaotong","address":"83166 Old Shore Parkway","lng":103.717465,"lat":27.338257},
  {"id":1344,"name":"Nūrābād","address":"05 Nancy Court","lng":47.9762632,"lat":34.0665041},
  {"id":1345,"name":"Juan N Alvarez","address":"35303 Westport Pass","lng":-99.5360598,"lat":18.3549366},
  {"id":1346,"name":"Kovylkino","address":"2 Corry Junction","lng":43.8688442,"lat":53.9762845},
  {"id":1347,"name":"Sumurgung","address":"1625 Hansons Terrace","lng":112.0103765,"lat":-6.8926501},
  {"id":1348,"name":"Half Way Tree","address":"0 Thierer Point","lng":-76.7984918,"lat":18.0120542},
  {"id":1349,"name":"Camgyai","address":"20603 Glacier Hill Pass","lng":"86.3","lat":"28"},
  {"id":1350,"name":"Guitang","address":"6040 Old Gate Street","lng":106.630153,"lat":26.647661},
  {"id":1351,"name":"Göteborg","address":"972 Autumn Leaf Terrace","lng":11.8724097,"lat":57.6959194},
  {"id":1352,"name":"Legrada","address":"0 Claremont Way","lng":123.247589,"lat":9.2901323},
  {"id":1353,"name":"Piritiba","address":"4607 Harper Center","lng":-40.5940565,"lat":-11.7088712},
  {"id":1354,"name":"Renfrew","address":"554 Scott Circle","lng":-76.6841393,"lat":45.4718665},
  {"id":1355,"name":"Almendra","address":"80817 Sherman Crossing","lng":-7.0537674,"lat":40.9974887},
  {"id":1356,"name":"Houmt Souk","address":"1380 Esch Hill","lng":10.850791,"lat":33.8787981},
  {"id":1357,"name":"Tiro","address":"30929 East Point","lng":110.374855,"lat":-7.7823871},
  {"id":1358,"name":"Saguday","address":"822 Hanover Street","lng":121.563879,"lat":16.5409974},
  {"id":1359,"name":"Mitrópoli","address":"88 Porter Way","lng":21.8407341,"lat":39.3395415},
  {"id":1360,"name":"Greensboro","address":"8666 Eagan Avenue","lng":-79.8184684,"lat":36.1857974},
  {"id":1361,"name":"Dobrovo","address":"54 Duke Park","lng":13.5270951,"lat":45.9974545},
  {"id":1362,"name":"Cô Tô","address":"8422 Garrison Way","lng":107.8346924,"lat":21.1062206},
  {"id":1363,"name":"Chiquinquirá","address":"4 Milwaukee Drive","lng":-73.819571,"lat":5.614775},
  {"id":1364,"name":"Souran","address":"923 Pearson Lane","lng":36.7415432,"lat":35.2866986},
  {"id":1365,"name":"Jumpangdua","address":"196 Lake View Alley","lng":"96.78446","lat":"5.19669"},
  {"id":1366,"name":"Gasi","address":"879 Melby Hill","lng":93.812858,"lat":31.092719},
  {"id":1367,"name":"Narva","address":"264 Larry Plaza","lng":28.1791333,"lat":59.3796798},
  {"id":1368,"name":"Florida","address":"6 Milwaukee Pass","lng":-88.8383036,"lat":15.026492},
  {"id":1369,"name":"Macapo","address":"47 Russell Center","lng":-68.4397551,"lat":9.8247812},
  {"id":1370,"name":"Melioratyvne","address":"8 Butternut Terrace","lng":35.398479,"lat":48.6160168},
  {"id":1371,"name":"Novogurovskiy","address":"59855 Norway Maple Lane","lng":37.3384052,"lat":54.4676703},
  {"id":1372,"name":"Kota Bharu","address":"521 Reindahl Court","lng":102.2462087,"lat":6.1097207},
  {"id":1373,"name":"Baturinggit Kaja","address":"849 Del Sol Junction","lng":"115.5631","lat":"-8.2464"},
  {"id":1374,"name":"Suncheon","address":"3108 Stephen Alley","lng":127.4872135,"lat":34.950637},
  {"id":1375,"name":"Chaoshui","address":"3398 Prairieview Place","lng":111.410194,"lat":25.282208},
  {"id":1376,"name":"Comendador","address":"935 Oxford Drive","lng":-70.0007511,"lat":18.4500491},
  {"id":1377,"name":"Bela Vista","address":"644 Forest Dale Parkway","lng":-56.4719928,"lat":-21.9111483},
  {"id":1378,"name":"Bangad","address":"23821 Eastwood Street","lng":120.0745042,"lat":15.0410586},
  {"id":1379,"name":"Sañgay","address":"90 Southridge Road","lng":123.5205279,"lat":13.5936457},
  {"id":1380,"name":"Polowat","address":"8157 Kensington Street","lng":149.200361,"lat":7.357338},
  {"id":1381,"name":"Jimsar","address":"783 Mccormick Pass","lng":89.180437,"lat":44.000497},
  {"id":1382,"name":"Nangkasari","address":"78 Sauthoff Avenue","lng":107.4010519,"lat":-6.3865373},
  {"id":1383,"name":"Lianjiangkou","address":"82038 Westridge Park","lng":130.325723,"lat":46.857141},
  {"id":1384,"name":"Kimitsu","address":"6349 Forest Run Pass","lng":134.0105824,"lat":34.6372754},
  {"id":1385,"name":"Luodian","address":"32 Kensington Road","lng":121.346638,"lat":31.415251},
  {"id":1386,"name":"Jablonec nad Nisou","address":"28 Jenifer Lane","lng":15.1765093,"lat":50.7193517},
  {"id":1387,"name":"Água Preta","address":"2 Briar Crest Street","lng":-35.4562795,"lat":-8.7393595},
  {"id":1388,"name":"Santos Evos","address":"11829 Truax Hill","lng":-7.8303977,"lat":40.6588133},
  {"id":1389,"name":"Thoen","address":"09 Monterey Point","lng":99.195529,"lat":17.6143085},
  {"id":1390,"name":"El Corozal","address":"4589 Graedel Alley","lng":-86.5135502,"lat":16.3456563},
  {"id":1391,"name":"Aguachica","address":"28 Graceland Pass","lng":-73.611665,"lat":8.305925},
  {"id":1392,"name":"Adelaide","address":"875 Melrose Parkway","lng":26.2952385,"lat":-32.7071454},
  {"id":1393,"name":"Nanshe","address":"04 Menomonie Alley","lng":113.525165,"lat":22.801624},
  {"id":1394,"name":"Ayapa","address":"93 Bultman Point","lng":-87.1746957,"lat":15.1112711},
  {"id":1395,"name":"Kagoro","address":"99613 Bellgrove Drive","lng":8.39358,"lat":9.614603},
  {"id":1396,"name":"Battle Creek","address":"891 Glendale Drive","lng":-85.1872878,"lat":42.319384},
  {"id":1397,"name":"Garibaldi","address":"7163 Clarendon Center","lng":-51.5289168,"lat":-29.2581646},
  {"id":1398,"name":"Cibeureum","address":"2690 Grover Hill","lng":106.9506175,"lat":-6.939897},
  {"id":1399,"name":"Bairan","address":"9477 Anthes Place","lng":123.7192022,"lat":10.1985612},
  {"id":1400,"name":"Rancakole","address":"0294 Ilene Court","lng":107.6777669,"lat":-7.0725035},
  {"id":1401,"name":"Brzączowice","address":"202 Sycamore Parkway","lng":20.0454282,"lat":49.8741216},
  {"id":1402,"name":"Suwon-si","address":"8 Badeau Plaza","lng":127.0286009,"lat":37.2635727},
  {"id":1403,"name":"Bogo","address":"41 Duke Park","lng":14.6004911,"lat":10.7330518},
  {"id":1404,"name":"Emiliano Zapata","address":"9563 Orin Terrace","lng":-99.1843676,"lat":18.8478608},
  {"id":1405,"name":"Sampués","address":"1 Hallows Terrace","lng":-75.2887369,"lat":9.135346},
  {"id":1406,"name":"Uga","address":"9 Esch Court","lng":7.0794263,"lat":5.9353459},
  {"id":1407,"name":"Bongor","address":"63956 Nova Park","lng":15.3775245,"lat":10.2748807},
  {"id":1408,"name":"Jiquilillo","address":"249 Village Green Drive","lng":-87.4424369,"lat":12.7335527},
  {"id":1409,"name":"Siteía","address":"46 Del Sol Court","lng":26.1052329,"lat":35.2086503},
  {"id":1410,"name":"Luodian","address":"72702 Pierstorff Drive","lng":121.346638,"lat":31.415251},
  {"id":1411,"name":"Pa Phayom","address":"5774 Quincy Junction","lng":99.9423246,"lat":7.8401615},
  {"id":1412,"name":"Lesozavodsk","address":"74 Ohio Place","lng":133.4113691,"lat":45.323812},
  {"id":1413,"name":"Bjästa","address":"3182 Warrior Lane","lng":18.4484104,"lat":63.2563101},
  {"id":1414,"name":"Oslo","address":"01 Longview Avenue","lng":10.7067713,"lat":59.9162711},
  {"id":1415,"name":"Utrecht","address":"2 Talmadge Street","lng":30.3089541,"lat":-27.6711693},
  {"id":1416,"name":"Rengat","address":"56 Eastlawn Lane","lng":102.5527505,"lat":-0.2007936},
  {"id":1417,"name":"Seboruco","address":"4382 Mccormick Junction","lng":-72.0705185,"lat":8.1406054},
  {"id":1418,"name":"Fort Macleod","address":"250 Annamark Hill","lng":"-113.41857","lat":"49.71671"},
  {"id":1419,"name":"Machov","address":"719 Texas Place","lng":16.2682843,"lat":50.4915831},
  {"id":1420,"name":"Abuxarda","address":"25 Bartillon Circle","lng":-9.4194921,"lat":38.7188171},
  {"id":1421,"name":"Ekazhevo","address":"43 Golden Leaf Drive","lng":44.8434843,"lat":43.2038704},
  {"id":1422,"name":"Ipueiras","address":"3364 Straubel Pass","lng":-48.4473452,"lat":-11.2407526},
  {"id":1423,"name":"Dachang","address":"84315 Mccormick Park","lng":116.989574,"lat":39.886547},
  {"id":1424,"name":"Lexington","address":"609 Carioca Pass","lng":-84.4172666,"lat":37.9098504},
  {"id":1425,"name":"Soloma","address":"58097 Anniversary Way","lng":-91.430201,"lat":15.661003},
  {"id":1426,"name":"Örnsköldsvik","address":"55182 Hollow Ridge Hill","lng":18.7067796,"lat":63.3063621},
  {"id":1427,"name":"Ciburial","address":"13 Kinsman Plaza","lng":107.6422488,"lat":-6.8575149},
  {"id":1428,"name":"Kembangan","address":"1 Jay Plaza","lng":106.742319,"lat":-6.1912334},
  {"id":1429,"name":"Whakatane","address":"6 Summerview Alley","lng":176.9852185,"lat":-37.9625979},
  {"id":1430,"name":"Pancoran","address":"7926 Forest Run Plaza","lng":106.8473377,"lat":-6.2523005},
  {"id":1431,"name":"Al Ḩazm","address":"9 Talmadge Trail","lng":44.7791562,"lat":16.1672432},
  {"id":1432,"name":"Deán Funes","address":"94666 South Street","lng":-64.2385396,"lat":-31.399061},
  {"id":1433,"name":"Ngulakan","address":"933 Golf Terrace","lng":110.1236245,"lat":-7.869171},
  {"id":1434,"name":"Xinhang","address":"120 Cambridge Junction","lng":119.569305,"lat":31.068734},
  {"id":1435,"name":"Nantes","address":"89 Lillian Parkway","lng":-1.6901492,"lat":47.17532},
  {"id":1436,"name":"Qinglin","address":"3 Stoughton Pass","lng":98.8529872,"lat":25.852003},
  {"id":1437,"name":"Gaozhuang","address":"5 Paget Place","lng":117.323725,"lat":34.810487},
  {"id":1438,"name":"Iksan","address":"9633 Alpine Alley","lng":126.9575991,"lat":35.9482858},
  {"id":1439,"name":"Taurija","address":"189 Di Loreto Court","lng":-77.32901,"lat":-8.371078},
  {"id":1440,"name":"Itapecerica","address":"39 Anhalt Plaza","lng":-45.1120424,"lat":-20.4703278},
  {"id":1441,"name":"Saint-Péray","address":"23 Vernon Drive","lng":4.8413855,"lat":44.9447526},
  {"id":1442,"name":"Cortez","address":"7 Sherman Terrace","lng":121.1325639,"lat":14.5640576},
  {"id":1443,"name":"Piraju","address":"589 Texas Circle","lng":-49.3838782,"lat":-23.1770971},
  {"id":1444,"name":"Dongsheng","address":"88 Kensington Crossing","lng":109.963338,"lat":39.822507},
  {"id":1445,"name":"Roermond","address":"3 Almo Center","lng":6.0187806,"lat":51.1806274},
  {"id":1446,"name":"Kruisfontein","address":"1 Stone Corner Alley","lng":24.7371099,"lat":-34.007765},
  {"id":1447,"name":"Shengli","address":"548 Holy Cross Place","lng":120.1561748,"lat":30.2979687},
  {"id":1448,"name":"Vilémov","address":"0 Golf Course Pass","lng":16.9953098,"lat":49.6354683},
  {"id":1449,"name":"Shijiang","address":"366 Kenwood Court","lng":113.521804,"lat":28.445307},
  {"id":1450,"name":"Teluksantong","address":"17028 Fuller Terrace","lng":117.8663075,"lat":-8.7229245},
  {"id":1451,"name":"København","address":"3393 Golf Course Plaza","lng":12.5751597,"lat":55.6777952},
  {"id":1452,"name":"Ilhéus","address":"743 Lakewood Alley","lng":-39.0459316,"lat":-14.7929927},
  {"id":1453,"name":"Synevyr","address":"712 Northland Alley","lng":23.6229395,"lat":48.4851578},
  {"id":1454,"name":"Héroumbili","address":"5045 Pine View Road","lng":43.3885797,"lat":-11.5459875},
  {"id":1455,"name":"Maasin","address":"921 Thompson Lane","lng":124.841371,"lat":10.132503},
  {"id":1456,"name":"Tambulatana","address":"72 Judy Place","lng":"120.1979","lat":"-9.5128"},
  {"id":1457,"name":"Indramayu","address":"0349 Becker Avenue","lng":108.3258329,"lat":-6.33731},
  {"id":1458,"name":"Taytay","address":"02 Carey Alley","lng":119.5914817,"lat":10.9915855},
  {"id":1459,"name":"Comandante Luis Piedra Buena","address":"6734 Delladonna Parkway","lng":-58.5284973,"lat":-34.5154006},
  {"id":1460,"name":"San Pedro","address":"96182 Mosinee Circle","lng":-58.4809081,"lat":-34.6492768},
  {"id":1461,"name":"Olocuilta","address":"602 Waxwing Center","lng":-89.1158008,"lat":13.5681668},
  {"id":1462,"name":"Tawangsari","address":"60 Marcy Road","lng":110.7897275,"lat":-7.7285206},
  {"id":1463,"name":"Chenhu","address":"570 Sutherland Avenue","lng":104.066801,"lat":30.572815},
  {"id":1464,"name":"Baraguá","address":"7522 Prairie Rose Parkway","lng":-78.6313624,"lat":21.6936233},
  {"id":1465,"name":"Lorino","address":"6199 Algoma Crossing","lng":"-171.70396","lat":"65.50331"},
  {"id":1466,"name":"Sennoy","address":"8058 Clove Road","lng":46.9612179,"lat":52.1565353},
  {"id":1467,"name":"Belyy Gorodok","address":"15083 American Ash Lane","lng":37.9617087,"lat":55.5700317},
  {"id":1468,"name":"Zaliztsi","address":"05 Declaration Junction","lng":25.3739849,"lat":49.7937517},
  {"id":1469,"name":"Qīr Moāv","address":"825 Manitowish Junction","lng":"35.69999","lat":"31.18248"},
  {"id":1470,"name":"Xiejiaya","address":"8 Lillian Crossing","lng":126.4510829,"lat":44.441584},
  {"id":1471,"name":"Kropachëvo","address":"88 Cody Terrace","lng":57.9832945,"lat":55.0123473},
  {"id":1472,"name":"São João de Caparica","address":"484 Cherokee Alley","lng":-9.2406619,"lat":38.661678},
  {"id":1473,"name":"Senneterre","address":"5 Elgar Place","lng":"-77.23951","lat":"48.39302"},
  {"id":1474,"name":"Liulin","address":"9035 Warbler Junction","lng":110.88907,"lat":37.429832},
  {"id":1475,"name":"Solor","address":"32890 Haas Avenue","lng":123.5818992,"lat":-10.1585855},
  {"id":1476,"name":"Augustów","address":"43997 Mcbride Hill","lng":21.063409,"lat":51.341066},
  {"id":1477,"name":"Qazax","address":"06 Sutherland Road","lng":45.3516331,"lat":41.0971074},
  {"id":1478,"name":"Rawson","address":"17 Saint Paul Point","lng":-57.6258993,"lat":-37.9707308},
  {"id":1479,"name":"Yueshan","address":"867 Burning Wood Center","lng":112.509269,"lat":22.428345},
  {"id":1480,"name":"Frederiksberg","address":"95 Southridge Pass","lng":12.5516206,"lat":55.6753006},
  {"id":1481,"name":"Sonina","address":"92045 Crest Line Alley","lng":22.275776,"lat":50.057265},
  {"id":1482,"name":"Tielong","address":"87 Morrow Street","lng":123.726035,"lat":42.223828},
  {"id":1483,"name":"Savonranta","address":"67 Memorial Pass","lng":29.2055142,"lat":62.1738098},
  {"id":1484,"name":"Voznesen’ye","address":"5 Reinke Trail","lng":35.485856,"lat":61.0162875},
  {"id":1485,"name":"Alès","address":"14 Arapahoe Court","lng":4.0057868,"lat":44.0570174},
  {"id":1486,"name":"Jönköping","address":"91098 La Follette Place","lng":14.1650902,"lat":57.7470467},
  {"id":1487,"name":"Cullinan","address":"559 Boyd Plaza","lng":28.5158257,"lat":-25.6684553},
  {"id":1488,"name":"Tukuyu","address":"82338 Fairfield Pass","lng":33.6483471,"lat":-9.2538202},
  {"id":1489,"name":"Chanthaburi","address":"34508 Hudson Terrace","lng":102.1041583,"lat":12.573631},
  {"id":1490,"name":"Kunheda Woerzu Manzu","address":"43 Bunting Parkway","lng":"127.5032","lat":"49.88477"},
  {"id":1491,"name":"Abadiânia","address":"970 Dayton Circle","lng":-48.7060608,"lat":-16.1976908},
  {"id":1492,"name":"Shkodër","address":"0339 Vernon Center","lng":19.5032559,"lat":42.0692985},
  {"id":1493,"name":"Chía","address":"3860 Springs Way","lng":-74.0325368,"lat":4.8615787},
  {"id":1494,"name":"Muravlenko","address":"89002 Ilene Plaza","lng":65.5492993,"lat":57.1754487},
  {"id":1495,"name":"Voyinka","address":"4 1st Court","lng":"33.99138","lat":"45.8699"},
  {"id":1496,"name":"Göteborg","address":"07067 Carey Crossing","lng":20.2753893,"lat":63.8223321},
  {"id":1497,"name":"Chame","address":"58951 Hansons Circle","lng":-79.8464804,"lat":8.5860654},
  {"id":1498,"name":"Dornava","address":"3680 Michigan Point","lng":15.952954,"lat":46.4356499},
  {"id":1499,"name":"Mander","address":"700 Killdeer Place","lng":106.3198908,"lat":-6.2360264},
  {"id":1500,"name":"Padre Nabeto","address":"2 Pepper Wood Street","lng":-8.8830265,"lat":38.5633826},
  {"id":1501,"name":"Saint Joseph","address":"45 Kipling Lane","lng":-94.9143239,"lat":39.6924206},
  {"id":1502,"name":"Na Yung","address":"391 Bowman Trail","lng":102.220463,"lat":17.9092223},
  {"id":1503,"name":"Gandra","address":"402 Eagan Lane","lng":-8.628833,"lat":41.8815942},
  {"id":1504,"name":"Talashkino","address":"119 Pine View Park","lng":32.1804491,"lat":54.6567593},
  {"id":1505,"name":"Glasgow","address":"227 Florence Crossing","lng":-4.2494388,"lat":55.8709949},
  {"id":1506,"name":"San Diego","address":"9140 Colorado Place","lng":121.0202323,"lat":14.5701829},
  {"id":1507,"name":"Casal do Sapo","address":"70153 Arizona Way","lng":-9.0817894,"lat":38.5537924},
  {"id":1508,"name":"Gajiram","address":"985 Merry Road","lng":13.2057597,"lat":12.4860074},
  {"id":1509,"name":"Chahe","address":"5016 Briar Crest Place","lng":108.957345,"lat":19.238934},
  {"id":1510,"name":"Shin’ichi","address":"4409 Hazelcrest Junction","lng":133.0604733,"lat":33.9352916},
  {"id":1511,"name":"Kamwenge","address":"5245 Magdeline Plaza","lng":30.4512086,"lat":0.186066},
  {"id":1512,"name":"Taltal","address":"87297 Moland Terrace","lng":121.049071,"lat":14.573997},
  {"id":1513,"name":"Zanjān","address":"087 Morningstar Alley","lng":48.5087209,"lat":36.6830045},
  {"id":1514,"name":"Jingmao","address":"87192 Hermina Alley","lng":99.679493,"lat":22.493937},
  {"id":1515,"name":"Hénin-Beaumont","address":"73 Randy Hill","lng":2.801236,"lat":50.3171905},
  {"id":1516,"name":"Nofoali‘i","address":"765 Mallard Street","lng":-171.9596279,"lat":-13.8223647},
  {"id":1517,"name":"Shakhty","address":"24184 Loeprich Park","lng":40.2098294,"lat":47.7314993},
  {"id":1518,"name":"Bosanski Brod","address":"5 Kensington Junction","lng":17.9937204,"lat":45.1454765},
  {"id":1519,"name":"Tānsen","address":"2387 Spaight Park","lng":83.5443287,"lat":27.861901},
  {"id":1520,"name":"Campos do Jordão","address":"481 Lake View Lane","lng":-45.5963557,"lat":-22.7428673},
  {"id":1521,"name":"Rueil-Malmaison","address":"02465 Grover Terrace","lng":2.166848,"lat":48.8708001},
  {"id":1522,"name":"Gaïtánion","address":"12878 Kennedy Hill","lng":20.874871,"lat":37.7881713},
  {"id":1523,"name":"Saint-Félicien","address":"5 Anthes Crossing","lng":-72.4519727,"lat":48.6513092},
  {"id":1524,"name":"Pariaman","address":"29872 8th Way","lng":100.1233396,"lat":-0.6256517},
  {"id":1525,"name":"Dezhou","address":"3789 Kenwood Alley","lng":116.357464,"lat":37.434092},
  {"id":1526,"name":"Chantilly","address":"9077 Center Point","lng":2.6981496,"lat":47.3036891},
  {"id":1527,"name":"Viana","address":"29294 Veith Hill","lng":-45.0373171,"lat":-3.2023658},
  {"id":1528,"name":"Souflí","address":"03 Prentice Lane","lng":26.2992566,"lat":41.1943451},
  {"id":1529,"name":"Waikambila","address":"81 Sutherland Trail","lng":"119.669","lat":"-9.5324"},
  {"id":1530,"name":"Buynaksk","address":"2 Paget Hill","lng":47.1321204,"lat":42.7997781},
  {"id":1531,"name":"Itambé","address":"4268 Golf View Junction","lng":-35.148879,"lat":-7.4443035},
  {"id":1532,"name":"Chodová Planá","address":"1165 Rigney Parkway","lng":12.7301543,"lat":49.8932232},
  {"id":1533,"name":"Vallegrande","address":"43 Green Plaza","lng":-64.1123359,"lat":-18.4902959},
  {"id":1534,"name":"Ōkuchi","address":"4 Banding Park","lng":139.9803194,"lat":40.0982704},
  {"id":1535,"name":"Maswarah","address":"6 Maryland Pass","lng":"45.72623","lat":"14.34399"},
  {"id":1536,"name":"Carolina","address":"303 Kinsman Terrace","lng":-47.2923893,"lat":-7.1765167},
  {"id":1537,"name":"Meilisi","address":"92 Forest Run Park","lng":123.7529099,"lat":47.309537},
  {"id":1538,"name":"Zhonglong","address":"92227 Carioca Lane","lng":112.9857433,"lat":28.1904306},
  {"id":1539,"name":"Puerto Montt","address":"76 Union Trail","lng":-72.9411364,"lat":-41.468917},
  {"id":1540,"name":"Abbeville","address":"9927 Gina Point","lng":1.8573006,"lat":50.1015135},
  {"id":1541,"name":"Zhishan","address":"056 Bellgrove Alley","lng":122.207215,"lat":29.985295},
  {"id":1542,"name":"Creil","address":"6 Maple Wood Street","lng":2.510652,"lat":49.243003},
  {"id":1543,"name":"São Mateus","address":"142 Kim Park","lng":-27.268149,"lat":38.656021},
  {"id":1544,"name":"Chowṉêy","address":"844 Columbus Court","lng":"66.27233","lat":"33.38278"},
  {"id":1545,"name":"Souziqiu","address":"8 Dovetail Place","lng":110.364953,"lat":29.541793},
  {"id":1546,"name":"Yasynuvata","address":"520 Lyons Parkway","lng":37.8765944,"lat":48.1221425},
  {"id":1547,"name":"Costa Sacate","address":"740 Norway Maple Way","lng":-63.760259,"lat":-31.646394},
  {"id":1548,"name":"Gaplek","address":"9 Green Hill","lng":106.7474013,"lat":-6.3472173},
  {"id":1549,"name":"Presidente Dutra","address":"79 Farragut Trail","lng":-44.0491741,"lat":-22.5845295},
  {"id":1550,"name":"Guolemude","address":"48418 Loomis Crossing","lng":94.928484,"lat":36.406404},
  {"id":1551,"name":"Luoyang","address":"17 Sutherland Street","lng":112.453926,"lat":34.620202},
  {"id":1552,"name":"Nato","address":"906 Onsgard Hill","lng":125.8214811,"lat":7.4201981},
  {"id":1553,"name":"Kademangan","address":"564 American Center","lng":112.1060214,"lat":-8.1995552},
  {"id":1554,"name":"Qorveh","address":"28 Ilene Parkway","lng":47.8038272,"lat":35.1678934},
  {"id":1555,"name":"Headlands","address":"770 Blaine Avenue","lng":32.043969,"lat":-18.2898667},
  {"id":1556,"name":"Ambovombe","address":"40087 Westend Crossing","lng":46.0897124,"lat":-25.1720132},
  {"id":1557,"name":"Miura","address":"916 4th Drive","lng":129.244362,"lat":28.1499543},
  {"id":1558,"name":"Shāhzādpur","address":"261 Trailsway Street","lng":89.573856,"lat":24.1933092},
  {"id":1559,"name":"Yangzi Jianglu","address":"6 Bluestem Parkway","lng":120.0265654,"lat":31.848499},
  {"id":1560,"name":"Loureiro","address":"43389 Goodland Alley","lng":-8.3624629,"lat":41.4808684},
  {"id":1561,"name":"Saint-Laurent-Blangy","address":"18626 Goodland Trail","lng":2.801689,"lat":50.300542},
  {"id":1562,"name":"Baota","address":"8 West Park","lng":109.493107,"lat":36.591213},
  {"id":1563,"name":"Vitez","address":"184 John Wall Terrace","lng":17.7905271,"lat":44.150897},
  {"id":1564,"name":"Miaotang","address":"6 Armistice Court","lng":110.090436,"lat":28.579409},
  {"id":1565,"name":"Sandaogou","address":"81 Boyd Terrace","lng":115.437602,"lat":41.468342},
  {"id":1566,"name":"Yayao","address":"9604 Rutledge Drive","lng":121.154634,"lat":30.037192},
  {"id":1567,"name":"Długosiodło","address":"993 Old Shore Way","lng":21.5903277,"lat":52.7765719},
  {"id":1568,"name":"San Enrique","address":"2 Spohn Way","lng":122.8801918,"lat":10.4179921},
  {"id":1569,"name":"Requião","address":"906 Laurel Trail","lng":-8.4841515,"lat":41.418695},
  {"id":1570,"name":"Lope de Vega","address":"28 Sundown Point","lng":124.6357734,"lat":12.3084603},
  {"id":1571,"name":"Longford","address":"08 Autumn Leaf Trail","lng":-7.8004329,"lat":53.7283566},
  {"id":1572,"name":"Wenheng","address":"5061 Linden Point","lng":116.760392,"lat":25.664461},
  {"id":1573,"name":"Kanturk","address":"05 Brickson Park Circle","lng":-8.9342111,"lat":52.182304},
  {"id":1574,"name":"Wanzhai","address":"0704 Blue Bill Park Junction","lng":114.1751471,"lat":22.276022},
  {"id":1575,"name":"Igarapé Açu","address":"625 Helena Road","lng":-48.4609448,"lat":-1.3964218},
  {"id":1576,"name":"Zlechov","address":"48353 Tennyson Avenue","lng":17.3859903,"lat":49.0733587},
  {"id":1577,"name":"Maracanã","address":"7475 Blue Bill Park Park","lng":-47.4882762,"lat":-0.8086425},
  {"id":1578,"name":"Tours","address":"84883 Eastlawn Point","lng":5.534063,"lat":45.70734},
  {"id":1579,"name":"Aral","address":"47 Maple Wood Pass","lng":61.6639055,"lat":46.803197},
  {"id":1580,"name":"Wuning","address":"7145 Merchant Court","lng":115.100568,"lat":29.256382},
  {"id":1581,"name":"Dundee","address":"99108 Almo Place","lng":27.8454627,"lat":-26.2886266},
  {"id":1582,"name":"Potulando","address":"419 Hayes Circle","lng":121.648987,"lat":-8.844744},
  {"id":1583,"name":"Semampir","address":"32570 Anderson Place","lng":112.7450068,"lat":-7.2114552},
  {"id":1584,"name":"Artemisa","address":"0132 Tennessee Street","lng":-82.7589859,"lat":22.8159074},
  {"id":1585,"name":"Ávato","address":"1 Daystar Terrace","lng":24.8064244,"lat":40.9632212},
  {"id":1586,"name":"Sanjiao","address":"70 Schurz Way","lng":113.418215,"lat":22.676245},
  {"id":1587,"name":"Tanbu","address":"90 Vahlen Hill","lng":113.106055,"lat":23.342031},
  {"id":1588,"name":"Nowogard","address":"45184 Everett Place","lng":15.1379238,"lat":53.6897029},
  {"id":1589,"name":"Hollola","address":"274 International Court","lng":25.3947277,"lat":61.0031692},
  {"id":1590,"name":"Sembung","address":"07 Bluejay Lane","lng":115.1859517,"lat":-8.4727553},
  {"id":1591,"name":"Şaḩneh","address":"6 Novick Drive","lng":47.6947512,"lat":34.4740361},
  {"id":1592,"name":"Kalibaru","address":"41100 Springview Court","lng":113.9774369,"lat":-8.2665992},
  {"id":1593,"name":"Porto União","address":"99171 Kennedy Court","lng":-51.07813,"lat":-26.2324014},
  {"id":1594,"name":"Maofan","address":"3378 Arkansas Lane","lng":119.977286,"lat":31.829323},
  {"id":1595,"name":"Sychëvo","address":"2311 Summer Ridge Street","lng":36.2249059,"lat":55.9576019},
  {"id":1596,"name":"Santa Cruz","address":"2 Ridge Oak Hill","lng":-67.5082709,"lat":10.1819305},
  {"id":1597,"name":"Bungsuan","address":"7 Prairieview Center","lng":122.7339098,"lat":11.2533569},
  {"id":1598,"name":"Fuling","address":"29078 Sycamore Center","lng":107.389298,"lat":29.703113},
  {"id":1599,"name":"Panganiban","address":"193 Village Road","lng":124.3040904,"lat":13.9062958},
  {"id":1600,"name":"Carbonear","address":"7348 Waxwing Pass","lng":-53.2341123,"lat":47.731518},
  {"id":1601,"name":"Nueva Manoa","address":"492 Mockingbird Drive","lng":-65.395393,"lat":-9.718793},
  {"id":1602,"name":"Wendengying","address":"2957 Mayer Junction","lng":122.117995,"lat":37.219543},
  {"id":1603,"name":"Solna","address":"1761 Brown Center","lng":17.9947004,"lat":59.3650479},
  {"id":1604,"name":"Kėdainiai","address":"91 Saint Paul Terrace","lng":23.9749999,"lat":55.2884444},
  {"id":1605,"name":"Tomigusuku","address":"1692 Ryan Junction","lng":127.6825578,"lat":26.1853781},
  {"id":1606,"name":"Hendījān","address":"54 Linden Alley","lng":49.7064548,"lat":30.2382492},
  {"id":1607,"name":"Portland","address":"4701 Reinke Place","lng":-122.6788535,"lat":45.5155832},
  {"id":1608,"name":"Oof","address":"7 Toban Plaza","lng":106.8906727,"lat":-6.1492453},
  {"id":1609,"name":"Al Manāqil","address":"66008 Lake View Alley","lng":33.000095,"lat":14.2549626},
  {"id":1610,"name":"Dalumangcob","address":"14375 Delladonna Circle","lng":124.25,"lat":7.2333331},
  {"id":1611,"name":"Puning","address":"497 Cambridge Drive","lng":116.165777,"lat":23.297493},
  {"id":1612,"name":"Quichuay","address":"7956 Grim Hill","lng":-75.2865498,"lat":-11.8887963},
  {"id":1613,"name":"Pasirnangka","address":"21611 Bay Alley","lng":106.2698669,"lat":-6.5792655},
  {"id":1614,"name":"Novohrad-Volyns’kyy","address":"468 Porter Drive","lng":27.6363775,"lat":50.5860203},
  {"id":1615,"name":"Mityana","address":"5508 Karstens Place","lng":32.043969,"lat":0.4016398},
  {"id":1616,"name":"Gamleby","address":"6123 Weeping Birch Crossing","lng":16.5004384,"lat":57.9268439},
  {"id":1617,"name":"Jingguan","address":"5257 Utah Road","lng":106.570188,"lat":29.895386},
  {"id":1618,"name":"Shajing","address":"80 Milwaukee Court","lng":113.829667,"lat":22.720595},
  {"id":1619,"name":"Khlong Luang","address":"57 Glendale Terrace","lng":100.6473542,"lat":14.0654264},
  {"id":1620,"name":"Irákleia","address":"707 Debra Street","lng":23.2810087,"lat":41.1837502},
  {"id":1621,"name":"Moa","address":"77 Chinook Pass","lng":-74.9501034,"lat":20.6574573},
  {"id":1622,"name":"Göteborg","address":"85523 Debs Park","lng":11.9417454,"lat":57.719258},
  {"id":1623,"name":"Pamoyanan","address":"6 Maple Wood Avenue","lng":106.8030892,"lat":-6.6409658},
  {"id":1624,"name":"Wailolong","address":"26901 Corscot Avenue","lng":123.6455502,"lat":-8.2447934},
  {"id":1625,"name":"Montes Claros","address":"33 Everett Avenue","lng":-43.8616129,"lat":-16.7159055},
  {"id":1626,"name":"São Pedro do Estoril","address":"7 Sauthoff Way","lng":-9.3872558,"lat":38.7080654},
  {"id":1627,"name":"Dunhua","address":"12639 Esker Drive","lng":128.2323169,"lat":43.372464},
  {"id":1628,"name":"El Pino","address":"342 La Follette Point","lng":-69.7294736,"lat":19.0311391},
  {"id":1629,"name":"Las Varillas","address":"8 6th Terrace","lng":-64.2874506,"lat":-31.3258489},
  {"id":1630,"name":"Esposende","address":"019 Shelley Center","lng":-8.765802,"lat":41.5320313},
  {"id":1631,"name":"Binhe","address":"5020 Bobwhite Hill","lng":117.710496,"lat":39.00366},
  {"id":1632,"name":"Dingle","address":"93 Oxford Park","lng":122.6717828,"lat":10.9991938},
  {"id":1633,"name":"Shanjie","address":"48 Roth Way","lng":119.3008339,"lat":26.0890415},
  {"id":1634,"name":"Horní Bříza","address":"56 Summit Court","lng":13.3555893,"lat":49.8401299},
  {"id":1635,"name":"San Isidro","address":"6 Northview Pass","lng":-99.1985584,"lat":19.482042},
  {"id":1636,"name":"Facatativá","address":"4354 Hoffman Pass","lng":-74.354009,"lat":4.809984},
  {"id":1637,"name":"Olds","address":"232 Boyd Parkway","lng":-114.105279,"lat":51.7920135},
  {"id":1638,"name":"Moissy-Cramayel","address":"5 Raven Road","lng":2.5921846,"lat":48.627474},
  {"id":1639,"name":"Wŏnsan","address":"885 Hoard Alley","lng":127.4460001,"lat":39.1538529},
  {"id":1640,"name":"Delta del Tigre","address":"27111 Shelley Alley","lng":-56.3628409,"lat":-34.7611766},
  {"id":1641,"name":"Tunal","address":"3374 Hoepker Point","lng":-81.05,"lat":-4.233333},
  {"id":1642,"name":"Sosnovka","address":"5522 Sycamore Hill","lng":42.9086187,"lat":53.4078295},
  {"id":1643,"name":"Gonzalo Pizarro","address":"5054 Reindahl Lane","lng":-77.3780201,"lat":0.0162131},
  {"id":1644,"name":"Asahikawa","address":"9824 Lukken Plaza","lng":127.9536808,"lat":26.6155575},
  {"id":1645,"name":"Romblon","address":"69 Gerald Terrace","lng":122.287602,"lat":12.530434},
  {"id":1646,"name":"Nasielsk","address":"74995 Golf Avenue","lng":20.7121262,"lat":52.735825},
  {"id":1647,"name":"Anilao","address":"64 Ludington Center","lng":122.740723,"lat":11.0002604},
  {"id":1648,"name":"Wŏnsan","address":"75 Browning Hill","lng":127.4460001,"lat":39.1538529},
  {"id":1649,"name":"Leicheng","address":"56508 Red Cloud Street","lng":109.026675,"lat":23.48193},
  {"id":1650,"name":"Ngurensiti","address":"019 Dovetail Drive","lng":111.0967118,"lat":-6.6998601},
  {"id":1651,"name":"Três de Maio","address":"6 Mallard Alley","lng":-54.2362302,"lat":-27.780531},
  {"id":1652,"name":"Pio Duran","address":"93575 Springview Street","lng":123.4584998,"lat":13.0710293},
  {"id":1653,"name":"Landi Kotal","address":"90895 David Park","lng":71.1485258,"lat":34.1205182},
  {"id":1654,"name":"Lyaskelya","address":"2 Dwight Drive","lng":31.0233095,"lat":61.7575929},
  {"id":1655,"name":"Al Kiswah","address":"783 Heath Court","lng":36.2522371,"lat":33.358433},
  {"id":1656,"name":"Mammari","address":"0306 Meadow Valley Trail","lng":33.205422,"lat":35.1742194},
  {"id":1657,"name":"Yudaikelike","address":"5182 Sage Center","lng":77.750994,"lat":39.714472},
  {"id":1658,"name":"Pongola","address":"89 Buhler Center","lng":25.3908518,"lat":-33.7363181},
  {"id":1659,"name":"Horana South","address":"8288 Graedel Lane","lng":80.0573194,"lat":6.7192076},
  {"id":1660,"name":"Santo Domingo Oeste","address":"65454 Novick Road","lng":-69.9791319,"lat":18.4678653},
  {"id":1661,"name":"Makrochóri","address":"3 Bobwhite Court","lng":22.249713,"lat":40.5511823},
  {"id":1662,"name":"Puerto Princesa","address":"710 Clarendon Circle","lng":118.7564541,"lat":9.7997051},
  {"id":1663,"name":"Longra","address":"3 Florence Court","lng":-8.0878236,"lat":40.7255697},
  {"id":1664,"name":"Shuikou","address":"8241 Carioca Plaza","lng":113.810157,"lat":26.319938},
  {"id":1665,"name":"Cimahi","address":"956 Bashford Place","lng":107.5413039,"lat":-6.8840816},
  {"id":1666,"name":"Suhe","address":"8315 Rowland Point","lng":99.816059,"lat":26.790544},
  {"id":1667,"name":"Papër","address":"64920 Vidon Place","lng":19.9537797,"lat":41.055232},
  {"id":1668,"name":"Sukorambi","address":"31 Shoshone Alley","lng":113.6621236,"lat":-8.1189113},
  {"id":1669,"name":"Thị Trấn Phù Yên","address":"0912 Scott Place","lng":104.6427499,"lat":21.2648137},
  {"id":1670,"name":"Chile Chico","address":"62125 Farwell Junction","lng":-71.7222795,"lat":-46.5409005},
  {"id":1671,"name":"Mosty","address":"46343 Sycamore Lane","lng":17.7869518,"lat":54.5489994},
  {"id":1672,"name":"Kinnula","address":"7739 Dawn Parkway","lng":25.0885217,"lat":63.1841185},
  {"id":1673,"name":"Rio de Moinhos","address":"9084 Dahle Crossing","lng":-8.243037,"lat":39.4753881},
  {"id":1674,"name":"Maloye Verevo","address":"19869 Bluestem Plaza","lng":30.1696437,"lat":59.615642},
  {"id":1675,"name":"Bentar Girang","address":"3 Ridge Oak Parkway","lng":"107.9114","lat":"-7.2117"},
  {"id":1676,"name":"Barrunchal","address":"9 Loomis Point","lng":-9.3605586,"lat":38.7409837},
  {"id":1677,"name":"Xianxiang","address":"62 Autumn Leaf Drive","lng":113.926763,"lat":35.303704},
  {"id":1678,"name":"Al Quwaysimah","address":"00691 Longview Junction","lng":35.949099,"lat":31.9100651},
  {"id":1679,"name":"Taifu","address":"7024 4th Terrace","lng":-74.3623566,"lat":41.4642919},
  {"id":1680,"name":"Shiyan","address":"67 Heffernan Road","lng":110.798266,"lat":32.629398},
  {"id":1681,"name":"Fajões","address":"537 Toban Junction","lng":-8.4250467,"lat":40.9178949},
  {"id":1682,"name":"Muleba","address":"159 Southridge Trail","lng":31.5370003,"lat":-2.164898},
  {"id":1683,"name":"Shitan","address":"1 Old Shore Center","lng":112.723615,"lat":27.754532},
  {"id":1684,"name":"Kępice","address":"28423 Namekagon Trail","lng":16.88967,"lat":54.24052},
  {"id":1685,"name":"Prapen","address":"695 Esker Point","lng":112.7576691,"lat":-7.3145841},
  {"id":1686,"name":"Kāleke Mandi","address":"99322 Karstens Crossing","lng":73.6032755,"lat":31.9750078},
  {"id":1687,"name":"Roanoke","address":"61805 Talmadge Street","lng":-79.94,"lat":37.27},
  {"id":1688,"name":"Khorramābād","address":"1 Clyde Gallagher Place","lng":48.3389644,"lat":33.4646833},
  {"id":1689,"name":"Saint-Flour","address":"0359 Mallard Drive","lng":2.9802744,"lat":45.1238884},
  {"id":1690,"name":"Apongo","address":"0 Russell Circle","lng":-73.933333,"lat":-14},
  {"id":1691,"name":"Xiachen","address":"1460 Arizona Alley","lng":118.089425,"lat":24.479833},
  {"id":1692,"name":"Trollhättan","address":"0436 Brown Terrace","lng":12.3145938,"lat":58.322001},
  {"id":1693,"name":"La Charité-sur-Loire","address":"57599 Kensington Place","lng":3.0182755,"lat":47.1837657},
  {"id":1694,"name":"Obroshyne","address":"9316 Knutson Court","lng":23.8698278,"lat":49.7855549},
  {"id":1695,"name":"Gubo","address":"03582 Welch Lane","lng":108.525769,"lat":24.564073},
  {"id":1696,"name":"Lurugan","address":"419 Melby Park","lng":125.0984645,"lat":7.9500437},
  {"id":1697,"name":"Xinpu","address":"7 Buhler Crossing","lng":118.679751,"lat":27.44587},
  {"id":1698,"name":"Xiaojie","address":"36 Sauthoff Circle","lng":109.155152,"lat":37.32273},
  {"id":1699,"name":"Bayan Hure","address":"45 Elmside Trail","lng":108.925428,"lat":41.561877},
  {"id":1700,"name":"Świebodzice","address":"0281 Rieder Park","lng":16.3195565,"lat":50.8822214},
  {"id":1701,"name":"Nanjiao","address":"89 Grover Way","lng":113.149693,"lat":40.005404},
  {"id":1702,"name":"Weihai","address":"11 Di Loreto Terrace","lng":122.120419,"lat":37.513068},
  {"id":1703,"name":"Novyy Svit","address":"8499 Lakeland Junction","lng":34.915084,"lat":44.829819},
  {"id":1704,"name":"Flic en Flac","address":"2 Dovetail Way","lng":57.3779066,"lat":-20.2884188},
  {"id":1705,"name":"Bech","address":"6183 Cottonwood Pass","lng":6.3655038,"lat":49.7523363},
  {"id":1706,"name":"Yangdang","address":"684 Cascade Hill","lng":121.061097,"lat":28.365818},
  {"id":1707,"name":"Qamdo","address":"71 Russell Trail","lng":97.17202,"lat":31.140969},
  {"id":1708,"name":"Canchayllo","address":"24447 Tomscot Terrace","lng":-75.730667,"lat":-11.82198},
  {"id":1709,"name":"Huaribamba","address":"7 Vidon Terrace","lng":-74.95,"lat":-12.266667},
  {"id":1710,"name":"Reno","address":"194 Dakota Park","lng":-119.6962677,"lat":40.0115285},
  {"id":1711,"name":"New Agutaya","address":"93 Starling Place","lng":121.0412391,"lat":14.5593606},
  {"id":1712,"name":"Bartolomé Masó","address":"9323 Muir Road","lng":-76.947022,"lat":20.1566488},
  {"id":1713,"name":"Ambatolampy","address":"13 Goodland Pass","lng":47.4392352,"lat":-19.3836846},
  {"id":1714,"name":"Libu","address":"63810 Blaine Parkway","lng":107.88645,"lat":25.410654},
  {"id":1715,"name":"Basseterre","address":"843 Granby Plaza","lng":-62.7176924,"lat":17.3026058},
  {"id":1716,"name":"Matara","address":"39497 Main Junction","lng":80.5148127,"lat":5.9368109},
  {"id":1717,"name":"Crespo","address":"3 Del Sol Crossing","lng":-60.6752261,"lat":-32.968211},
  {"id":1718,"name":"Rokytnice","address":"1221 Meadow Ridge Park","lng":17.9821893,"lat":49.3259705},
  {"id":1719,"name":"Pericik","address":"2 Magdeline Trail","lng":106.797267,"lat":-6.308084},
  {"id":1720,"name":"Aco","address":"0 Sugar Plaza","lng":-77.553344,"lat":-9.3601019},
  {"id":1721,"name":"Belo Horizonte","address":"57754 Hooker Court","lng":-43.9352376,"lat":-19.9245018},
  {"id":1722,"name":"Nenagh","address":"5128 Sycamore Alley","lng":-8.2001004,"lat":52.86326},
  {"id":1723,"name":"Tatabánya","address":"0 Sheridan Way","lng":18.3979984,"lat":47.585569},
  {"id":1724,"name":"Dédougou","address":"4864 Fulton Park","lng":-3.4700327,"lat":12.4503003},
  {"id":1725,"name":"Jatirejo","address":"50 Goodland Terrace","lng":112.4172256,"lat":-7.617735},
  {"id":1726,"name":"Jianxin","address":"7 Farwell Junction","lng":116.420331,"lat":39.761892},
  {"id":1727,"name":"Svrljig","address":"5548 Park Meadow Court","lng":22.1271404,"lat":43.4146453},
  {"id":1728,"name":"Pakisaji","address":"4781 Glacier Hill Crossing","lng":112.6079459,"lat":-8.074933},
  {"id":1729,"name":"Taavetti","address":"969 Myrtle Court","lng":24.8958285,"lat":60.1996809},
  {"id":1730,"name":"San Pedro Zacapa","address":"515 Everett Center","lng":-88.1132737,"lat":14.7575652},
  {"id":1731,"name":"Grazhdanskoye","address":"6082 4th Plaza","lng":135.0631263,"lat":48.4935627},
  {"id":1732,"name":"Maastricht","address":"6840 Anderson Point","lng":5.6735818,"lat":50.8446443},
  {"id":1733,"name":"San Lorenzo","address":"8172 Elka Trail","lng":-87.4554432,"lat":13.4326204},
  {"id":1734,"name":"Şaḩneh","address":"6815 Mccormick Court","lng":47.6947512,"lat":34.4740361},
  {"id":1735,"name":"Pedro Betancourt","address":"6 Alpine Pass","lng":-81.2917971,"lat":22.7292345},
  {"id":1736,"name":"Kíti","address":"4 Blackbird Alley","lng":33.5784007,"lat":34.855441},
  {"id":1737,"name":"Popasna","address":"987 Hudson Circle","lng":38.3727153,"lat":48.6282422},
  {"id":1738,"name":"Bor Tungge","address":"51185 Moose Plaza","lng":85.38086,"lat":44.055922},
  {"id":1739,"name":"Gonghe","address":"5657 Mariners Cove Way","lng":100.620031,"lat":36.284107},
  {"id":1740,"name":"Sangzhou","address":"654 Meadow Valley Point","lng":120.585289,"lat":31.298974},
  {"id":1741,"name":"San Pedro Necta","address":"3890 Continental Street","lng":-91.765785,"lat":15.4910185},
  {"id":1742,"name":"Hongor","address":"615 Talisman Avenue","lng":105.9224212,"lat":49.3107516},
  {"id":1743,"name":"Monte Branco","address":"7 Spohn Road","lng":-8.4405081,"lat":37.197624},
  {"id":1744,"name":"Garhi Khairo","address":"0 Muir Parkway","lng":68.3682111,"lat":28.2068263},
  {"id":1745,"name":"New York City","address":"4641 Crescent Oaks Parkway","lng":-73.976024,"lat":40.7525629},
  {"id":1746,"name":"Cigembong","address":"37 Dexter Plaza","lng":107.9520129,"lat":-6.8747015},
  {"id":1747,"name":"Chengjiao","address":"84 Maple Wood Park","lng":112.571923,"lat":28.260141},
  {"id":1748,"name":"Pedregulho","address":"51149 Swallow Park","lng":-47.4810384,"lat":-20.2562227},
  {"id":1749,"name":"Józefów","address":"04 Milwaukee Point","lng":20.9183286,"lat":51.7565958},
  {"id":1750,"name":"Lagoaça","address":"42381 School Trail","lng":-6.7293601,"lat":41.1933912},
  {"id":1751,"name":"Lajeosa do Mondego","address":"94004 Coleman Junction","lng":-7.337931,"lat":40.6268947},
  {"id":1752,"name":"Kolobolon","address":"9131 Red Cloud Avenue","lng":123.1407761,"lat":-10.7903678},
  {"id":1753,"name":"Ḩuraytān","address":"11 Cascade Pass","lng":37.1097748,"lat":36.2861677},
  {"id":1754,"name":"Oslo","address":"40 Tomscot Center","lng":10.8335476,"lat":59.9123889},
  {"id":1755,"name":"Robertsfors","address":"28 Forest Point","lng":20.84891,"lat":64.191835},
  {"id":1756,"name":"Kaeng Khoi","address":"6609 Autumn Leaf Terrace","lng":101.003522,"lat":14.5801157},
  {"id":1757,"name":"Balahovit","address":"601 Grim Center","lng":44.6027766,"lat":40.2544003},
  {"id":1758,"name":"Ifon","address":"83396 Mifflin Park","lng":5.7773898,"lat":6.9234906},
  {"id":1759,"name":"Popovi","address":"02 Mendota Drive","lng":19.2935412,"lat":44.7696167},
  {"id":1760,"name":"Kibiti","address":"81 Moose Park","lng":38.9381031,"lat":-7.7256069},
  {"id":1761,"name":"Padangbai","address":"569 Carey Circle","lng":115.5074108,"lat":-8.5298984},
  {"id":1762,"name":"Santa Cruz Balanyá","address":"3 Sugar Plaza","lng":-90.9457183,"lat":14.6476843},
  {"id":1763,"name":"Episkopí","address":"35221 Namekagon Trail","lng":24.3359662,"lat":35.3292328},
  {"id":1764,"name":"Nnewi","address":"04 Northport Street","lng":6.9103455,"lat":6.0105192},
  {"id":1765,"name":"Cipancur","address":"2183 Dapin Avenue","lng":108.6383454,"lat":-6.9623022},
  {"id":1766,"name":"Itajaí","address":"5319 Mccormick Terrace","lng":-48.6709133,"lat":-26.9107052},
  {"id":1767,"name":"San Isidro","address":"4569 American Ash Drive","lng":126.065213,"lat":9.939624},
  {"id":1768,"name":"Maswa","address":"723 Clemons Hill","lng":33.9750018,"lat":-3.2409636},
  {"id":1769,"name":"Erdenet","address":"02717 Spenser Junction","lng":104.0716533,"lat":49.054082},
  {"id":1770,"name":"Infantas","address":"4577 Mayer Crossing","lng":-8.2464998,"lat":41.4222316},
  {"id":1771,"name":"Yinxi","address":"0421 Raven Way","lng":104.474299,"lat":28.559492},
  {"id":1772,"name":"Totolan","address":"35392 Duke Junction","lng":123.8501765,"lat":9.6356686},
  {"id":1773,"name":"Frankfurt am Main","address":"12 Warbler Junction","lng":8.7032376,"lat":50.1616215},
  {"id":1774,"name":"Panan","address":"4884 Stuart Road","lng":120.0278872,"lat":15.2113128},
  {"id":1775,"name":"Micoud","address":"0587 Caliangt Park","lng":-60.9001934,"lat":13.8211871},
  {"id":1776,"name":"Baicaogou","address":"1443 Rutledge Alley","lng":129.618208,"lat":43.267167},
  {"id":1777,"name":"Kotabaru","address":"37724 Ridgeway Terrace","lng":115.9467997,"lat":-3.0029841},
  {"id":1778,"name":"Colinas","address":"37 Ohio Alley","lng":-51.8628399,"lat":-29.3827582},
  {"id":1779,"name":"Sztum","address":"07108 Victoria Parkway","lng":19.0295929,"lat":53.9208518},
  {"id":1780,"name":"Xianyan","address":"595 Annamark Point","lng":108.708991,"lat":34.329605},
  {"id":1781,"name":"Pelem","address":"628 David Trail","lng":112.1698476,"lat":-7.7607338},
  {"id":1782,"name":"Gunan","address":"079 Briar Crest Court","lng":111.8568586,"lat":27.6252995},
  {"id":1783,"name":"Annecy","address":"3 Drewry Pass","lng":6.1250598,"lat":45.925854},
  {"id":1784,"name":"Tembisa","address":"7983 Kedzie Center","lng":28.1971031,"lat":-25.99566},
  {"id":1785,"name":"Kilingi-Nõmme","address":"69603 Fair Oaks Circle","lng":24.9513595,"lat":58.1483629},
  {"id":1786,"name":"Verkhnye Syn’ovydne","address":"2 Dennis Junction","lng":"23.59099","lat":"49.10307"},
  {"id":1787,"name":"Doctor Juan León Mallorquín","address":"67 Scott Place","lng":-55.2590707,"lat":-25.4302418},
  {"id":1788,"name":"Huyuan","address":"5792 Monument Road","lng":109.482078,"lat":28.572029},
  {"id":1789,"name":"Arauquita","address":"4079 Northland Street","lng":-71.1686168,"lat":6.6148458},
  {"id":1790,"name":"Tuamese","address":"20 Brentwood Plaza","lng":124.7188222,"lat":-9.0709033},
  {"id":1791,"name":"Zhishan","address":"22 Hintze Drive","lng":122.207215,"lat":29.985295},
  {"id":1792,"name":"Minneapolis","address":"28 Dixon Circle","lng":-93.26,"lat":44.9799999},
  {"id":1793,"name":"El Adelanto","address":"6 Monument Terrace","lng":-89.861368,"lat":14.175851},
  {"id":1794,"name":"Zašová","address":"48432 East Crossing","lng":18.0449791,"lat":49.4817883},
  {"id":1795,"name":"Libuganon","address":"6550 Stoughton Road","lng":"125.7782","lat":"7.3488"},
  {"id":1796,"name":"Jiuchenggong","address":"7828 Bellgrove Hill","lng":107.79016,"lat":34.676976},
  {"id":1797,"name":"Wonorejo","address":"21557 Grover Pass","lng":112.8135304,"lat":-7.305958},
  {"id":1798,"name":"Limbuš","address":"3773 Burning Wood Hill","lng":15.5817763,"lat":46.5548251},
  {"id":1799,"name":"Laveiras","address":"24063 Sloan Way","lng":-9.2716405,"lat":38.708348},
  {"id":1800,"name":"Touama","address":"1 Brickson Park Pass","lng":-7.4841222,"lat":31.5319623},
  {"id":1801,"name":"Mueang Phuket","address":"899 Lighthouse Bay Parkway","lng":98.3227892,"lat":7.9247693},
  {"id":1802,"name":"Xinning","address":"70187 Corscot Place","lng":110.856622,"lat":26.433417},
  {"id":1803,"name":"Las Varillas","address":"47 Iowa Crossing","lng":-64.2874506,"lat":-31.3258489},
  {"id":1804,"name":"Majāz al Bāb","address":"5033 Fairview Lane","lng":9.6146499,"lat":36.6484118},
  {"id":1805,"name":"Lixu","address":"3980 Lighthouse Bay Trail","lng":116.640263,"lat":28.065079},
  {"id":1806,"name":"Balai","address":"6 Mallard Road","lng":103.4295033,"lat":0.995919},
  {"id":1807,"name":"Biwer","address":"496 Karstens Plaza","lng":6.3726286,"lat":49.7058855},
  {"id":1808,"name":"Tejakalapa","address":"3447 Kings Parkway","lng":"108.1252","lat":"-7.2324"},
  {"id":1809,"name":"Sangali","address":"1077 Milwaukee Park","lng":122.2124068,"lat":7.0762776},
  {"id":1810,"name":"Magangué","address":"4877 Oak Valley Court","lng":-74.5697617,"lat":8.9282133},
  {"id":1811,"name":"Dualing","address":"00592 Vermont Trail","lng":124.5600318,"lat":7.1220009},
  {"id":1812,"name":"Pangrumasan","address":"248 Arrowood Circle","lng":107.8998566,"lat":-7.5630269},
  {"id":1813,"name":"Mosina","address":"3124 Ohio Place","lng":16.8470545,"lat":52.2454069},
  {"id":1814,"name":"Fryčovice","address":"051 Jenifer Court","lng":18.2269255,"lat":49.6629527},
  {"id":1815,"name":"Jaguariaíva","address":"82 Barby Point","lng":-49.7106625,"lat":-24.2530306},
  {"id":1816,"name":"Kawahmanuk","address":"5242 Talisman Avenue","lng":108.3905156,"lat":-7.0120918},
  {"id":1817,"name":"Aurora","address":"6 Havey Avenue","lng":121.0044883,"lat":14.5458392},
  {"id":1818,"name":"Yangjia","address":"4 Lakewood Gardens Plaza","lng":116.4442945,"lat":39.9368237},
  {"id":1819,"name":"Orlovo","address":"699 Mandrake Plaza","lng":39.559439,"lat":51.789985},
  {"id":1820,"name":"Nazrēt","address":"198 Macpherson Hill","lng":39.2583293,"lat":8.5263486},
  {"id":1821,"name":"Colombia","address":"86289 Petterle Lane","lng":-77.4185584,"lat":20.9874938},
  {"id":1822,"name":"Oehala","address":"769 Raven Terrace","lng":124.1810057,"lat":-9.9422458},
  {"id":1823,"name":"Al Manşūrah","address":"51 Hagan Circle","lng":36.2264681,"lat":33.3585811},
  {"id":1824,"name":"Peski","address":"664 Helena Junction","lng":32.6123944,"lat":57.6466053},
  {"id":1825,"name":"Santa Teresita","address":"7492 Mariners Cove Hill","lng":120.972283,"lat":13.874099},
  {"id":1826,"name":"Bulacnin","address":"27 Duke Court","lng":121.1394301,"lat":13.9894141},
  {"id":1827,"name":"Tajinan","address":"12 3rd Junction","lng":112.6794582,"lat":-8.0503973},
  {"id":1828,"name":"Gwangjeok","address":"2 Daystar Avenue","lng":126.9836808,"lat":37.8246038},
  {"id":1829,"name":"Singgugu","address":"93932 Maple Terrace","lng":"108.3549","lat":"-7.1398"},
  {"id":1830,"name":"Laingsburg","address":"12018 Eastlawn Place","lng":20.5826261,"lat":-33.2307354},
  {"id":1831,"name":"Brodek u Přerova","address":"0909 Helena Road","lng":17.3382537,"lat":49.4841887},
  {"id":1832,"name":"Aktsyabrski","address":"6 Gerald Place","lng":28.9459316,"lat":52.6340378},
  {"id":1833,"name":"Campina Grande do Sul","address":"69 Vidon Trail","lng":-49.0555691,"lat":-25.304882},
  {"id":1834,"name":"Sukojember","address":"57406 Clove Crossing","lng":113.7662578,"lat":-8.0644078},
  {"id":1835,"name":"Shibirghān","address":"123 Northfield Plaza","lng":65.7490624,"lat":36.6817149},
  {"id":1836,"name":"Chepo","address":"191 Roth Lane","lng":-79.1040432,"lat":9.1631736},
  {"id":1837,"name":"Burmakino","address":"7 Truax Circle","lng":40.3148687,"lat":57.4341878},
  {"id":1838,"name":"Kathmandu","address":"628 Lawn Alley","lng":85.3239605,"lat":27.7172453},
  {"id":1839,"name":"Injīl","address":"2 Stuart Pass","lng":62.215754,"lat":34.4274119},
  {"id":1840,"name":"Keruguya","address":"0853 Colorado Plaza","lng":37.2784835,"lat":-0.4993281},
  {"id":1841,"name":"Łaszczów","address":"06607 Novick Terrace","lng":23.7255557,"lat":50.5332417},
  {"id":1842,"name":"Bunut","address":"33816 Atwood Lane","lng":102.1175404,"lat":0.2561666},
  {"id":1843,"name":"Vodnyy","address":"9 Dryden Street","lng":53.410931,"lat":63.503807},
  {"id":1844,"name":"Pentéli","address":"45 Village Green Plaza","lng":23.8696276,"lat":38.0476296},
  {"id":1845,"name":"Obiliq","address":"69326 Scofield Street","lng":21.0670387,"lat":42.6869167},
  {"id":1846,"name":"Caohezhang","address":"909 Bayside Alley","lng":124.048328,"lat":41.069856},
  {"id":1847,"name":"Sarykemer","address":"3 Southridge Pass","lng":71.513917,"lat":43.0052216},
  {"id":1848,"name":"Monte Carmelo","address":"77357 Graedel Center","lng":-47.4916674,"lat":-18.7307117},
  {"id":1849,"name":"Dassa-Zoumé","address":"9002 Bobwhite Plaza","lng":2.1990763,"lat":7.7849087},
  {"id":1850,"name":"Caijiang","address":"23 Banding Court","lng":115.81778,"lat":26.610707},
  {"id":1851,"name":"Toliara","address":"75 Packers Center","lng":43.6854936,"lat":-23.3516191},
  {"id":1852,"name":"Pofadder","address":"74763 Daystar Court","lng":19.295048,"lat":-28.7523},
  {"id":1853,"name":"Pak Kret","address":"2638 Almo Plaza","lng":100.5426442,"lat":13.8994973},
  {"id":1854,"name":"Bakulong","address":"501 David Street","lng":"120.6385","lat":"15.5379"},
  {"id":1855,"name":"Waldbillig","address":"806 Arapahoe Street","lng":6.2871406,"lat":49.7961202},
  {"id":1856,"name":"Tembau","address":"25519 Dovetail Crossing","lng":106.8513919,"lat":-6.264999},
  {"id":1857,"name":"Vyksa","address":"32538 Granby Point","lng":42.16866,"lat":55.321347},
  {"id":1858,"name":"Sanli","address":"2194 Graedel Way","lng":116.746096,"lat":24.84662},
  {"id":1859,"name":"Nūrābād","address":"1 Eliot Hill","lng":47.9762632,"lat":34.0665041},
  {"id":1860,"name":"Lingkou","address":"28 Jana Pass","lng":114.835777,"lat":26.82808},
  {"id":1861,"name":"Sigu","address":"017 Memorial Point","lng":119.8453914,"lat":28.9693852},
  {"id":1862,"name":"Blama","address":"6862 Bellgrove Way","lng":-11.3402694,"lat":7.8726899},
  {"id":1863,"name":"Caigongzhuang","address":"89 Johnson Terrace","lng":117.081971,"lat":38.78918},
  {"id":1864,"name":"Bakungan","address":"719 Monterey Way","lng":114.5,"lat":-8.2},
  {"id":1865,"name":"Penisihan","address":"3070 Bobwhite Avenue","lng":109.1553021,"lat":-7.5882979},
  {"id":1866,"name":"Płoniawy-Bramura","address":"26170 Michigan Drive","lng":21.0954627,"lat":52.959496},
  {"id":1867,"name":"Älvsjö","address":"78898 Petterle Parkway","lng":18.0250491,"lat":59.2883751},
  {"id":1868,"name":"Jaunpiebalga","address":"3416 Kennedy Park","lng":26.0336703,"lat":57.1770444},
  {"id":1869,"name":"Bakung","address":"136 4th Lane","lng":112.0714835,"lat":-8.2593984},
  {"id":1870,"name":"Otjimbingwe","address":"8 Dovetail Point","lng":16.1286901,"lat":-22.3531369},
  {"id":1871,"name":"Cibangban Girang","address":"6 Knutson Street","lng":"106.428","lat":"-6.9569"},
  {"id":1872,"name":"Otaslavice","address":"2 Haas Park","lng":17.0710865,"lat":49.3883262},
  {"id":1873,"name":"Young America","address":"67307 Hansons Way","lng":-93.92,"lat":44.81},
  {"id":1874,"name":"Xinshi","address":"097 Crescent Oaks Terrace","lng":113.256439,"lat":23.199183},
  {"id":1875,"name":"Pontian","address":"508 Maple Crossing","lng":121.0697978,"lat":14.7040142},
  {"id":1876,"name":"Lohong","address":"4092 Moulton Center","lng":100.1192169,"lat":-0.6311749},
  {"id":1877,"name":"Xuedian","address":"6 Dwight Circle","lng":113.798718,"lat":34.497578},
  {"id":1878,"name":"Hörby","address":"890 American Parkway","lng":13.6699417,"lat":55.859897},
  {"id":1879,"name":"Alquízar","address":"6050 Brown Plaza","lng":-82.5848464,"lat":22.8064234},
  {"id":1880,"name":"Chamouny","address":"219 Lerdahl Parkway","lng":57.4796981,"lat":-20.4780364},
  {"id":1881,"name":"Beiyang","address":"3 Spenser Park","lng":115.84573,"lat":23.028301},
  {"id":1882,"name":"Barbacena","address":"223 Forest Circle","lng":-43.7764925,"lat":-21.2399347},
  {"id":1883,"name":"Shuitianzhuang","address":"5853 Roth Point","lng":110.814125,"lat":28.041005},
  {"id":1884,"name":"Espera Feliz","address":"186 Nova Hill","lng":-41.9091561,"lat":-20.652053},
  {"id":1885,"name":"Xingtan","address":"18 Mendota Avenue","lng":113.152357,"lat":22.788341},
  {"id":1886,"name":"Gonbad-e Kāvūs","address":"2817 Service Avenue","lng":55.1596592,"lat":37.2406676},
  {"id":1887,"name":"Dingzigu","address":"9 Del Mar Trail","lng":117.164388,"lat":39.174484},
  {"id":1888,"name":"Indulang","address":"6528 Clyde Gallagher Lane","lng":124.5860781,"lat":8.0870678},
  {"id":1889,"name":"Malo","address":"44 Waywood Plaza","lng":111.716667,"lat":-7.116667},
  {"id":1890,"name":"Parungjawa","address":"312 Forest Dale Alley","lng":106.7175669,"lat":-6.4306844},
  {"id":1891,"name":"Yushugou","address":"0 Florence Plaza","lng":89.939332,"lat":43.897258},
  {"id":1892,"name":"San Vicente","address":"72 Pleasure Hill","lng":121.0589081,"lat":14.7596318},
  {"id":1893,"name":"Chayek","address":"9 Lakewood Gardens Alley","lng":74.5404694,"lat":41.9339521},
  {"id":1894,"name":"Tongli","address":"66269 Kenwood Circle","lng":120.722695,"lat":31.148896},
  {"id":1895,"name":"Niandui","address":"13998 8th Court","lng":111.692186,"lat":35.287727},
  {"id":1896,"name":"Mucifal","address":"8 Hermina Avenue","lng":-9.4468279,"lat":38.8082362},
  {"id":1897,"name":"Jieting","address":"00377 Chive Drive","lng":120.273991,"lat":29.641685},
  {"id":1898,"name":"Shkotovo","address":"705 Pennsylvania Pass","lng":132.3546464,"lat":43.3250688},
  {"id":1899,"name":"Picoto","address":"5893 Pankratz Center","lng":-8.8426989,"lat":39.859131},
  {"id":1900,"name":"Stari Bar","address":"95160 Elgar Lane","lng":19.1359789,"lat":42.0963895},
  {"id":1901,"name":"Florencia","address":"437 Cambridge Terrace","lng":-77.072933,"lat":1.683061},
  {"id":1902,"name":"Sanjian","address":"7261 Susan Road","lng":111.353125,"lat":27.539403},
  {"id":1903,"name":"Dayr Mawās","address":"33 Eastwood Park","lng":30.8510692,"lat":27.6376503},
  {"id":1904,"name":"Palaiseau","address":"1 Hudson Street","lng":2.2186743,"lat":48.7057309},
  {"id":1905,"name":"Shabo","address":"02 Moose Park","lng":30.384612,"lat":46.1282187},
  {"id":1906,"name":"Kardítsa","address":"49246 Annamark Junction","lng":21.9214049,"lat":39.3640258},
  {"id":1907,"name":"Caxito","address":"22015 Quincy Pass","lng":13.6565321,"lat":-8.5821947},
  {"id":1908,"name":"Muruni","address":"32 David Lane","lng":99.0652871,"lat":2.9623057},
  {"id":1909,"name":"North Battleford","address":"28404 Bobwhite Point","lng":-108.2930839,"lat":52.7785658},
  {"id":1910,"name":"Iwkowa","address":"55 Trailsway Crossing","lng":20.5901226,"lat":49.8167342},
  {"id":1911,"name":"Sumuran","address":"74922 Longview Junction","lng":99.0267076,"lat":1.480524},
  {"id":1912,"name":"Jijiang","address":"6613 Sundown Crossing","lng":118.552365,"lat":24.781681},
  {"id":1913,"name":"Dū Qal‘ah","address":"97024 Homewood Parkway","lng":"61.4469","lat":"32.14237"},
  {"id":1914,"name":"Huangbu","address":"0249 Bartillon Drive","lng":115.138892,"lat":23.124134},
  {"id":1915,"name":"Wartburg","address":"68 Farmco Crossing","lng":30.5803264,"lat":-29.4337624},
  {"id":1916,"name":"Huayuan","address":"12 Brown Place","lng":109.482078,"lat":28.572029},
  {"id":1917,"name":"Motuo","address":"43 Mendota Terrace","lng":95.333197,"lat":29.325298},
  {"id":1918,"name":"Gamagōri","address":"1 Brown Pass","lng":137.230017,"lat":34.8330915},
  {"id":1919,"name":"Babiak","address":"5 Maryland Court","lng":18.6995274,"lat":52.3537244},
  {"id":1920,"name":"Guisa","address":"032 Magdeline Pass","lng":-76.5430429,"lat":20.2542725},
  {"id":1921,"name":"Benjamín Aceval","address":"7300 Utah Drive","lng":-57.5476145,"lat":-24.9670799},
  {"id":1922,"name":"Nikol’skoye","address":"3588 Schurz Alley","lng":39.06949,"lat":45.0058742},
  {"id":1923,"name":"Datagon","address":"7 4th Terrace","lng":121.1016044,"lat":14.6238704},
  {"id":1924,"name":"Salgado","address":"05 Old Shore Way","lng":-37.4894776,"lat":-11.0646689},
  {"id":1925,"name":"Žlutice","address":"89 Dovetail Way","lng":13.1629837,"lat":50.0919285},
  {"id":1926,"name":"Ngadipuro","address":"28966 Commercial Hill","lng":112.1579249,"lat":-7.1030309},
  {"id":1927,"name":"Nancheng","address":"31 Steensland Road","lng":116.63704,"lat":27.569678},
  {"id":1928,"name":"Shalinskoye","address":"0 Cambridge Court","lng":93.768409,"lat":55.7279446},
  {"id":1929,"name":"Stryszów","address":"63239 Eastwood Trail","lng":19.6147046,"lat":49.8135834},
  {"id":1930,"name":"La Unión","address":"467 Express Way","lng":-76.785759,"lat":-9.7744129},
  {"id":1931,"name":"Basco","address":"2 Service Road","lng":121.9685567,"lat":20.448773},
  {"id":1932,"name":"Ózd","address":"3 Riverside Court","lng":20.2934524,"lat":48.2166359},
  {"id":1933,"name":"Wangmang","address":"99 Vidon Pass","lng":120.9061578,"lat":31.1206637},
  {"id":1934,"name":"Luwingu","address":"71 Mallory Parkway","lng":29.9104436,"lat":-10.2474296},
  {"id":1935,"name":"Ibiporã","address":"3 Anderson Crossing","lng":-51.0527244,"lat":-23.2664186},
  {"id":1936,"name":"Espírito Santo do Pinhal","address":"5 Meadow Vale Lane","lng":-46.7655989,"lat":-22.1859595},
  {"id":1937,"name":"Boucinha","address":"17906 Ruskin Circle","lng":-8.3872537,"lat":42.073507},
  {"id":1938,"name":"Koson","address":"1 Derek Drive","lng":65.5826679,"lat":39.0427392},
  {"id":1939,"name":"Xianyan","address":"0 Waxwing Park","lng":108.708991,"lat":34.329605},
  {"id":1940,"name":"Usman’","address":"05937 Westend Way","lng":39.7408362,"lat":52.0391192},
  {"id":1941,"name":"Voskop","address":"01 Anniversary Alley","lng":20.6898971,"lat":40.6098385},
  {"id":1942,"name":"Porsgrunn","address":"2 Porter Plaza","lng":9.6693512,"lat":59.1280914},
  {"id":1943,"name":"Mataya","address":"8 Jenifer Park","lng":124.3666687,"lat":7.5166669},
  {"id":1944,"name":"Bagulin","address":"84473 4th Junction","lng":120.3841382,"lat":16.6678009},
  {"id":1945,"name":"Staraya Mayna","address":"737 Manley Terrace","lng":48.924236,"lat":54.605563},
  {"id":1946,"name":"Heping","address":"64 Northview Lane","lng":114.938684,"lat":24.44218},
  {"id":1947,"name":"Bulasa","address":"2646 Packers Hill","lng":123.616147,"lat":9.92676},
  {"id":1948,"name":"San Salvador","address":"5679 Hollow Ridge Alley","lng":-89.2181911,"lat":13.6929403},
  {"id":1949,"name":"Shah Alam","address":"6116 Cascade Avenue","lng":101.5326734,"lat":3.0100681},
  {"id":1950,"name":"Adolfo Lopez Mateos","address":"69 Canary Street","lng":-98.9545512,"lat":19.3852368},
  {"id":1951,"name":"Setonokalong","address":"80 Summerview Parkway","lng":"111.9629","lat":"-8.0934"},
  {"id":1952,"name":"Orito","address":"16 Mifflin Road","lng":-76.87192,"lat":0.66643},
  {"id":1953,"name":"Capatárida","address":"435 School Pass","lng":-70.620384,"lat":11.171783},
  {"id":1954,"name":"Muyuka","address":"953 Shoshone Alley","lng":9.4144962,"lat":4.2904513},
  {"id":1955,"name":"Ponta Grossa","address":"4919 High Crossing Pass","lng":-50.1584514,"lat":-25.0993621},
  {"id":1956,"name":"Povedniki","address":"382 Sage Circle","lng":37.6084088,"lat":55.9763451},
  {"id":1957,"name":"Wangunjaya","address":"378 Sherman Road","lng":107.0893798,"lat":-7.0407255},
  {"id":1958,"name":"Arnelas","address":"989 Autumn Leaf Junction","lng":-8.5242992,"lat":41.0743876},
  {"id":1959,"name":"Dzerzhinsk","address":"61869 Lakewood Gardens Crossing","lng":95.5534963,"lat":56.6628106},
  {"id":1960,"name":"Xinheng","address":"35609 Harper Crossing","lng":116.289146,"lat":23.624141},
  {"id":1961,"name":"Maicao","address":"26622 Johnson Way","lng":-72.3628361,"lat":11.3451287},
  {"id":1962,"name":"Hewa","address":"9 Scofield Street","lng":122.6898986,"lat":-8.5713352},
  {"id":1963,"name":"Kletek","address":"17330 Pearson Circle","lng":112.6839275,"lat":-7.3594399},
  {"id":1964,"name":"Orléans","address":"243 Eastwood Lane","lng":2.8002946,"lat":47.3591366},
  {"id":1965,"name":"Paris 09","address":"62 Miller Alley","lng":5.8978018,"lat":43.4945737},
  {"id":1966,"name":"Hongcheng","address":"297 Superior Park","lng":117.504737,"lat":40.417547},
  {"id":1967,"name":"Matamey","address":"59806 Judy Trail","lng":8.4760154,"lat":13.4211757},
  {"id":1968,"name":"Cibogo","address":"9773 Heffernan Pass","lng":107.6363296,"lat":-6.8063294},
  {"id":1969,"name":"Mārupe","address":"60679 Annamark Terrace","lng":24.0317249,"lat":56.907241},
  {"id":1970,"name":"Puerto Esperanza","address":"01833 American Lane","lng":-60.8950764,"lat":-31.4573007},
  {"id":1971,"name":"Cahuacho","address":"70 Vera Parkway","lng":-73.4797036,"lat":-15.5030873},
  {"id":1972,"name":"Billère","address":"48583 Monument Road","lng":-0.3861522,"lat":43.3011387},
  {"id":1973,"name":"Agiásos","address":"8535 Kennedy Way","lng":26.3724138,"lat":39.0820946},
  {"id":1974,"name":"Xihe","address":"196 Maple Wood Trail","lng":105.298756,"lat":34.014215},
  {"id":1975,"name":"Tetebatu","address":"749 Hazelcrest Pass","lng":116.4134873,"lat":-8.4691756},
  {"id":1976,"name":"Zigong","address":"766 Hansons Road","lng":104.778442,"lat":29.33903},
  {"id":1977,"name":"Ambelón","address":"92497 Aberg Crossing","lng":22.3615771,"lat":39.7451063},
  {"id":1978,"name":"Kaeng Khoi","address":"8 Briar Crest Pass","lng":101.003522,"lat":14.5801157},
  {"id":1979,"name":"Pittsburgh","address":"9 Ilene Plaza","lng":-80.04928,"lat":40.5053499},
  {"id":1980,"name":"Beni Khiar","address":"7908 Kinsman Center","lng":10.7830826,"lat":36.4596214},
  {"id":1981,"name":"San Agustin","address":"95 Butterfield Plaza","lng":-103.461601,"lat":20.5511364},
  {"id":1982,"name":"San Jerónimo","address":"8 Arizona Way","lng":-87.6075294,"lat":14.6276215},
  {"id":1983,"name":"Libenge","address":"897 Fair Oaks Junction","lng":18.6353764,"lat":3.6489578},
  {"id":1984,"name":"Antabamba","address":"147 Mccormick Court","lng":-72.8778527,"lat":-14.3651534},
  {"id":1985,"name":"Banjar Ambengan","address":"12 Forster Drive","lng":115.2276614,"lat":-8.6182236},
  {"id":1986,"name":"Chenārān","address":"9380 Fallview Park","lng":59.1213974,"lat":36.6415869},
  {"id":1987,"name":"Yongning","address":"80 Aberg Street","lng":108.487368,"lat":22.75839},
  {"id":1988,"name":"Ishurdi","address":"54 Division Alley","lng":89.0581674,"lat":24.1573777},
  {"id":1989,"name":"Kuanfeu","address":"904 Columbus Street","lng":106.7809681,"lat":-6.1487501},
  {"id":1990,"name":"Krouna","address":"42 Sage Junction","lng":16.0289677,"lat":49.7761881},
  {"id":1991,"name":"Bhisho","address":"0626 Northland Trail","lng":28.1574467,"lat":-26.0440358},
  {"id":1992,"name":"Jilin","address":"34431 Sachtjen Way","lng":126.4371385,"lat":43.1520105},
  {"id":1993,"name":"Aghsu","address":"538 Karstens Lane","lng":48.3896404,"lat":40.5742298},
  {"id":1994,"name":"Kamyanyuki","address":"19 Northridge Avenue","lng":23.8049715,"lat":52.5595501},
  {"id":1995,"name":"Cinunjang","address":"51 Veith Circle","lng":108.2822389,"lat":-7.4250762},
  {"id":1996,"name":"Udobnaya","address":"752 Mariners Cove Avenue","lng":41.5683289,"lat":44.2147685},
  {"id":1997,"name":"Zengjia","address":"0 Pepper Wood Circle","lng":118.390218,"lat":30.411429},
  {"id":1998,"name":"Tampa","address":"182 Gerald Center","lng":-82.53,"lat":27.96},
  {"id":1999,"name":"Huwei","address":"74 Crest Line Junction","lng":103.8280655,"lat":30.7998721},
  {"id":2000,"name":"Liushan","address":"2615 Toban Circle","lng":118.762242,"lat":36.446025}]